stop_id,stop_code,stop_name,stop_lat,stop_lon,zone_id,stop_url,location_type,parent_station,municipality_id,stop_desc,stop_timezone,wheelchair_boarding,platform_code,vehicle_type
100,,Koskenkoulu,61.16943353540072,28.784182396484475,4,http://153,0,,153,,,0,,
30547,,Imatran keskusliikenneasema L,61.19589200000001,28.7774849,4,http://153,0,,153,,,0,,
81643,,Nuijamaantie 161,61.056922500000006,28.3156019,2,http://405,0,,405,,,0,,
81644,,Nuijamaantie 169,61.05650240000001,28.3162133,2,http://405,0,,405,,,0,,
81647,,Nuijamaantie 327,61.04923850000001,28.3409711,2,http://405,0,,405,,,0,,
81648,,Nuijamaantie 336,61.048694700000006,28.342387700000003,2,http://405,0,,405,,,0,,
81649,,Nuijamaantie 471,61.0404004,28.3599041,2,http://405,0,,405,,,0,,
81650,,Nuijamaantie 484,61.039337100000004,28.3608535,2,http://405,0,,405,,,0,,
81651,,Nuijamaantie 542,61.035313200000004,28.367116100000004,2,http://405,0,,405,,,0,,
81653,,Nuijamaantie 597,61.031671300000006,28.375214500000002,2,http://405,0,,405,,,0,,
81654,,Nuijamaantie 603,61.031164600000004,28.376254100000004,2,http://405,0,,405,,,0,,
81655,,Nuijamaantie 669,61.02786890000001,28.386256500000002,2,http://405,0,,405,,,0,,
81656,,Nuijamaantie 677,61.02717380000001,28.387288700000003,2,http://405,0,,405,,,0,,
81657,,Nuijamaantie 749,61.022310000000004,28.395853300000002,2,http://405,0,,405,,,0,,
81658,,Nuijamaantie 761,61.02136480000001,28.396735800000002,2,http://405,0,,405,,,0,,
81659,,Nuijamaantie 834,61.01607190000001,28.4041831,2,http://405,0,,405,,,0,,
81660,,Nuijamaantie 842,61.0153784,28.404960900000003,2,http://405,0,,405,,,0,,
81662,,Nuijamaantie 991,61.005565000000004,28.422904000000003,2,http://405,0,,405,,,0,,
81663,,Nuijamaantie 1154,60.9981275,28.447981900000002,2,http://405,0,,405,,,0,,
81664,,Nuijamaantie 1284,60.98958160000001,28.463949300000003,2,http://405,0,,405,,,0,,
81665,,Nuijamaantie 1259,60.9905218,28.4606938,2,http://405,0,,405,,,0,,
81666,,Nuijamaantie 1522,60.9753577,28.4956737,2,http://405,0,,405,,,0,,
81667,,Nuijamaantie 1532,60.9743423,28.496730600000003,2,http://405,0,,405,,,0,,
81668,,Nuijamaantie 1592,60.96970090000001,28.502754300000003,2,http://405,0,,405,,,0,,
81669,,Nuijamaantie 1597,60.9692348,28.502626100000004,2,http://405,0,,405,,,0,,
81672,,Rajatie 85,60.96085240000001,28.513181700000004,2,http://405,0,,405,,,0,,
81673,,Rajatie 181,60.962804000000006,28.530134200000003,2,http://405,0,,405,,,0,,
81674,,Rajatie 181,60.96296960000001,28.529920900000004,2,http://405,0,,405,,,0,,
83236,,Lemintie 14,61.0502966,28.012461700000003,2,http://405,0,,405,,,0,,
83237,,Lemintie 60,61.048890300000004,28.004645500000002,2,http://405,0,,405,,,0,,
83238,,Lemintie 70,61.04894530000001,28.0027639,2,http://405,0,,405,,,0,,
83239,,Lemintie 150,61.0494916,27.987967800000003,2,http://405,0,,405,,,0,,
83306,,Vaalimaantie 205,61.02542580000001,28.1670836,1,http://405,0,,405,,,0,,
83307,,Vaalimaantie 212,61.02458430000001,28.166480000000004,1,http://405,0,,405,,,0,,
83308,,Vaalimaantie 307,61.016293600000004,28.165462,2,http://405,0,,405,,,0,,
83309,,Vaalimaantie 319,61.01501510000001,28.165699600000003,2,http://405,0,,405,,,0,,
83310,,Vaalimaantie 385,61.009462500000005,28.163218000000004,2,http://405,0,,405,,,0,,
83311,,Vaalimaantie 392,61.00879270000001,28.162433900000003,2,http://405,0,,405,,,0,,
83312,,Vaalimaantie 431,61.0050925,28.1613238,2,http://405,0,,405,,,0,,
83313,,Vaalimaantie 441,61.004140400000004,28.161065800000003,2,http://405,0,,405,,,0,,
83314,,Vaalimaantie 529,60.9964414,28.1632013,2,http://405,0,,405,,,0,,
83315,,Vaalimaantie 537,60.9955629,28.162893500000003,2,http://405,0,,405,,,0,,
83316,,Vaalimaantie 668,60.9841564,28.163250800000004,2,http://405,0,,405,,,0,,
83317,,Vaalimaantie 680,60.9831957,28.1629645,2,http://405,0,,405,,,0,,
83318,,Vaalimaantie 766,60.97554600000001,28.160696500000004,2,http://405,0,,405,,,0,,
83319,,Vaalimaantie 815,60.971473200000005,28.157658800000004,2,http://405,0,,405,,,0,,
83320,,Vaalimaantie 825,60.9705895,28.156871300000002,2,http://405,0,,405,,,0,,
83321,,Vaalimaantie 845,60.96883940000001,28.156578300000003,2,http://405,0,,405,,,0,,
83322,,Vaalimaantie 859,60.96769150000001,28.155974200000003,2,http://405,0,,405,,,0,,
83323,,Vaalimaantie 925,60.961912500000004,28.152437400000004,2,http://405,0,,405,,,0,,
83324,,Vaalimaantie 937,60.96125550000001,28.1512214,2,http://405,0,,405,,,0,,
83325,,Vaalimaantie 1025,60.9539661,28.145651100000002,2,http://405,0,,405,,,0,,
83326,,Vaalimaantie 1040,60.95276030000001,28.1451713,2,http://405,0,,405,,,0,,
83327,,Vaalimaantie 1121,60.9456605,28.148432500000002,2,http://405,0,,405,,,0,,
83328,,Vaalimaantie 1132,60.94468440000001,28.149009700000004,2,http://405,0,,405,,,0,,
83329,,Vaalimaantie 1388,60.92307280000001,28.140295000000002,2,http://405,0,,405,,,0,,
83330,,Vaalimaantie 1396,60.922207300000004,28.139956,2,http://405,0,,405,,,0,,
83331,,Vaalimaantie 1455,60.9169484,28.137217300000003,2,http://405,0,,405,,,0,,
83332,,Vaalimaantie 1471,60.9155184,28.1356487,2,http://405,0,,405,,,0,,
83333,,Vaalimaantie 1515,60.9122642,28.134788000000004,2,http://405,0,,405,,,0,,
83334,,Vaalimaantie 1523,60.91090270000001,28.133827500000002,2,http://405,0,,405,,,0,,
83335,,Vaalimaantie 1605,60.904445200000005,28.1276459,2,http://405,0,,405,,,0,,
83336,,Vaalimaantie 1624,60.90287180000001,28.1267111,2,http://405,0,,405,,,0,,
83337,,Vaalimaantie 1767,60.8899661,28.129935000000003,2,http://405,0,,405,,,0,,
83338,,Vaalimaantie 1773,60.8894834,28.1301245,2,http://405,0,,405,,,0,,
83339,,Vaalimaantie 1898,60.87866470000001,28.134586400000003,3,http://405,0,,405,,,0,,
83340,,Vaalimaantie 1907,60.877743300000006,28.1344667,3,http://405,0,,405,,,0,,
83341,,Vaalimaantie 2125,60.85858280000001,28.132100400000002,3,http://405,0,,405,,,0,,
83342,,Vaalimaantie 2133,60.857812100000004,28.131208200000003,3,http://405,0,,405,,,0,,
83343,,Vaalimaantie 2355,60.84001920000001,28.114174400000003,3,http://405,0,,405,,,0,,
83344,,Vaalimaantie 2363,60.839217700000006,28.113825900000002,3,http://405,0,,405,,,0,,
83345,,Vaalimaantie 2491,60.8304065,28.098740400000004,3,http://405,0,,405,,,0,,
83346,,Vaalimaantie 2496,60.830084400000004,28.0986927,3,http://405,0,,405,,,0,,
83347,,Vaalimaantie 2683,60.81677450000001,28.079101500000004,3,http://405,0,,405,,,0,,
83348,,Vaalimaantie 2693,60.81659390000001,28.077399900000003,3,http://405,0,,405,,,0,,
83349,,Vaalimaantie 3031,60.79670490000001,28.033607800000002,3,http://405,0,,405,,,0,,
83350,,Vaalimaantie 3039,60.796156800000006,28.032550300000004,3,http://405,0,,405,,,0,,
83351,,Vaalimaantie 3190,60.789636300000005,28.0101258,3,http://405,0,,405,,,0,,
83352,,Vaalimaantie 3204,60.78962860000001,28.007449100000002,3,http://405,0,,405,,,0,,
83354,,Vaalimaantie 3265,60.787112300000004,27.9976933,3,http://405,0,,405,,,0,,
83355,,Vaalimaantie 3416,60.7752636,27.9855802,3,http://405,0,,405,,,0,,
83356,,Vaalimaantie 3427,60.77435320000001,27.9843879,3,http://405,0,,405,,,0,,
83358,,Vaalimaantie 3827,60.74129610000001,28.001491200000004,3,http://405,0,,405,,,0,,
83359,,Vaalimaantie 3955,60.7301184,28.0014381,3,http://405,0,,405,,,0,,
83360,,Vaalimaantie 3966,60.72960020000001,28.0004476,3,http://405,0,,405,,,0,,
83361,,Vaalimaantie 4063,60.72467880000001,27.985954500000002,3,http://405,0,,405,,,0,,
83362,,Vaalimaantie 4079,60.724423800000004,27.983086300000004,3,http://405,0,,405,,,0,,
83363,,Vaalimaantie 4182,60.720148800000004,27.9671534,3,http://405,0,,405,,,0,,
83364,,Vaalimaantie 4193,60.719541500000005,27.965433400000002,3,http://405,0,,405,,,0,,
83365,,Vaalimaantie 4262,60.7153107,27.956769200000004,3,http://405,0,,405,,,0,,
83366,,Vaalimaantie 4271,60.7146747,27.954974000000004,3,http://405,0,,405,,,0,,
83367,,Vaalimaantie 4295,60.713159700000006,27.952075200000003,3,http://405,0,,405,,,0,,
83397,,Vanha Viipurintie 150,61.04039360000001,28.225050200000002,1,http://405,0,,405,,,0,,
83398,,Vanha Viipurintie 170,61.03973310000001,28.227128900000004,1,http://405,0,,405,,,0,,
83399,,Vanha Viipurintie 212,61.03785920000001,28.2350698,1,http://405,0,,405,,,0,,
83400,,Vanha Viipurintie 214,61.037793300000004,28.2349822,1,http://405,0,,405,,,0,,
83401,,Vanha Viipurintie 256,61.03547030000001,28.2418635,2,http://405,0,,405,,,0,,
83402,,Vanha Viipurintie 264,61.03492010000001,28.242790900000003,2,http://405,0,,405,,,0,,
83403,,Vanha Viipurintie 339,61.0296615,28.251507900000004,2,http://405,0,,405,,,0,,
83404,,Vanha Viipurintie 348,61.028880400000006,28.252355500000004,2,http://405,0,,405,,,0,,
83405,,Vanha Viipurintie 437,61.022881100000006,28.263999400000003,2,http://405,0,,405,,,0,,
83406,,Vanha Viipurintie 429,61.023385100000006,28.262419100000002,2,http://405,0,,405,,,0,,
83407,,Vanha Viipurintie 493,61.019525400000006,28.271220000000003,2,http://405,0,,405,,,0,,
83408,,Vanha Viipurintie 484,61.020336500000006,28.2699758,2,http://405,0,,405,,,0,,
83409,,Vanha Viipurintie 524,61.01772100000001,28.275193800000004,2,http://405,0,,405,,,0,,
83410,,Vanha Viipurintie 535,61.01681430000001,28.276535600000003,2,http://405,0,,405,,,0,,
83411,,Vanha Viipurintie 719,61.00394190000001,28.2965547,2,http://405,0,,405,,,0,,
83412,,Vanha Viipurintie 727,61.00325790000001,28.296969600000004,2,http://405,0,,405,,,0,,
83413,,Vanha Viipurintie 778,60.9991764,28.302906500000002,2,http://405,0,,405,,,0,,
83414,,Vanha Viipurintie 785,60.99885930000001,28.3037674,2,http://405,0,,405,,,0,,
83415,,Vanha Viipurintie 883,60.99316650000001,28.3164669,2,http://405,0,,405,,,0,,
83417,,Vanha Viipurintie 948,60.9889621,28.323540800000004,2,http://405,0,,405,,,0,,
83418,,Vanha Viipurintie 951,60.988438200000004,28.323813100000002,2,http://405,0,,405,,,0,,
83419,,Vanha Viipurintie 1113,60.976319000000004,28.3369229,2,http://405,0,,405,,,0,,
83420,,Vainikkalantie 19,60.974381400000006,28.335431800000002,2,http://405,0,,405,,,0,,
83421,,Vainikkalantie 57,60.97272890000001,28.329823,2,http://405,0,,405,,,0,,
83422,,Vainikkalantie 67,60.97207050000001,28.327982000000002,2,http://405,0,,405,,,0,,
83423,,Vainikkalantie 104,60.969345600000004,28.3247983,2,http://405,0,,405,,,0,,
83424,,Vainikkalantie 111,60.9687605,28.323397600000003,2,http://405,0,,405,,,0,,
83425,,Vainikkalantie 168,60.966337100000004,28.315387700000002,2,http://405,0,,405,,,0,,
83426,,Vainikkalantie 181,60.965413100000006,28.312803000000002,2,http://405,0,,405,,,0,,
83427,,Vainikkalantie 213,60.96341640000001,28.308736600000003,2,http://405,0,,405,,,0,,
83428,,Vainikkalantie 228,60.9623782,28.3073635,2,http://405,0,,405,,,0,,
83429,,Vainikkalantie 284,60.95767060000001,28.307477400000003,2,http://405,0,,405,,,0,,
83430,,Vainikkalantie 296,60.95682180000001,28.306641100000004,2,http://405,0,,405,,,0,,
83431,,Vainikkalantie 545,60.936961800000006,28.300377800000003,2,http://405,0,,405,,,0,,
83432,,Vainikkalantie 556,60.93616170000001,28.299429900000003,2,http://405,0,,405,,,0,,
83433,,Vainikkalantie 590,60.9333541,28.297472300000003,2,http://405,0,,405,,,0,,
83434,,Vainikkalantie 600,60.932468400000005,28.296917800000003,2,http://405,0,,405,,,0,,
83435,,Vainikkalantie 628,60.929894000000004,28.297543400000002,2,http://405,0,,405,,,0,,
83437,,Vainikkalantie 683,60.92622430000001,28.3037275,2,http://405,0,,405,,,0,,
83438,,Vainikkalantie 700,60.925246300000005,28.3059611,2,http://405,0,,405,,,0,,
83439,,Vainikkalantie 735,60.923605800000004,28.311505300000004,2,http://405,0,,405,,,0,,
83440,,Vainikkalantie 759,60.922350800000004,28.3157597,2,http://405,0,,405,,,0,,
83441,,Vainikkalantie 777,60.9213147,28.317912900000003,2,http://405,0,,405,,,0,,
83442,,Vainikkalantie 855,60.916636200000006,28.328387000000003,2,http://405,0,,405,,,0,,
83443,,Vainikkalantie 872,60.915484500000005,28.330250300000003,2,http://405,0,,405,,,0,,
83444,,Vainikkalantie 923,60.91216490000001,28.336827900000003,2,http://405,0,,405,,,0,,
83445,,Vainikkalantie 937,60.91093740000001,28.336681900000002,2,http://405,0,,405,,,0,,
83446,,Vainikkalantie 1044,60.90232290000001,28.343018900000004,2,http://405,0,,405,,,0,,
83447,,Vainikkalantie 1053,60.90147580000001,28.342325600000002,2,http://405,0,,405,,,0,,
83448,,Vainikkalantie 1197,60.88908070000001,28.337456700000004,2,http://405,0,,405,,,0,,
83449,,Vainikkalantie 1205,60.888300400000006,28.336727500000002,2,http://405,0,,405,,,0,,
83450,,Vainikkalantie 1237,60.88544280000001,28.3353396,2,http://405,0,,405,,,0,,
83451,,Vainikkalantie 1251,60.884212700000006,28.334030100000003,2,http://405,0,,405,,,0,,
83452,,Vainikkalantie 1481,60.86922680000001,28.308053500000003,2,http://405,0,,405,,,0,,
83453,,Vainikkalantie 1490,60.869033800000004,28.306737400000003,2,http://405,0,,405,,,0,,
83454,,Vainikkalantie 1539 I,60.86612110000001,28.3009866,2,http://405,0,,405,,,0,,
83455,,Vainikkalantie 1539 L,60.86656060000001,28.299891000000002,2,http://405,0,,405,,,0,,
83460,,Imatranväylä 53,61.172957200000006,28.711865400000004,2,http://405,0,,405,,,0,,
83461,,Imatranväylä 64,61.172934100000006,28.713826500000003,2,http://405,0,,405,,,0,,
83462,,Imatranväylä 107,61.173366800000004,28.7217632,2,http://405,0,,405,,,0,,
83463,,Imatranväylä 114,61.173500600000004,28.722519300000002,2,http://405,0,,405,,,0,,
111111,,Huhtasen koulu,61.23056770000001,28.952574800000004,4,http://153,0,,153,,,0,,
133963,,Helsingintie P,61.038606900000005,28.1140745,1,http://405,0,,405,,,0,,
133964,,Helsingintie E,61.03876760000001,28.113341000000002,1,http://405,0,,405,,,0,,
133967,,Karjalantie 89,61.068460300000005,28.282656900000003,1,http://405,0,,405,,,0,,
133968,,Karjalantie 89,61.0686716,28.282723700000002,1,http://405,0,,405,,,0,,
133982,,Ylämaantie 341,60.9984741,28.0199713,2,http://405,0,,405,,,0,,
133983,,Ylämaantie 347,60.9979949,28.0197542,2,http://405,0,,405,,,0,,
133984,,Ylämaantie 805,60.964515600000006,27.982886800000003,2,http://405,0,,405,,,0,,
133985,,Ylämaantie 807,60.96436550000001,27.982699900000004,2,http://405,0,,405,,,0,,
133986,,Ylämaantie 2169,60.86281340000001,27.981273500000004,3,http://405,0,,405,,,0,,
133987,,Ylämaantie 2396,60.844484800000004,27.987761300000003,3,http://405,0,,405,,,0,,
133988,,Ylämaantie 2492,60.840177700000005,28.002592000000003,3,http://405,0,,405,,,0,,
133989,,Ylämaantie 2498,60.839431600000005,28.002878100000004,3,http://405,0,,405,,,0,,
133990,,Pentintie th P,60.8324574,28.0035464,3,http://405,0,,405,,,0,,
133991,,Pentintie th E,60.83182790000001,28.003153100000002,3,http://405,0,,405,,,0,,
133992,,Ylämaantie 2968,60.8035818,28.003533200000003,3,http://405,0,,405,,,0,,
133993,,Ylämaantie 3005,60.800261600000006,28.007026200000002,3,http://405,0,,405,,,0,,
133994,,Ylämaantie 3016,60.7999822,28.0077831,3,http://405,0,,405,,,0,,
133995,,Koskenkylä P,60.795303600000004,28.011742200000004,3,http://405,0,,405,,,0,,
133996,,Koskenkylä E,60.794609300000005,28.0113249,3,http://405,0,,405,,,0,,
133997,,Rikkiläntie 1281,60.911668000000006,28.1400536,2,http://405,0,,405,,,0,,
133998,,Rikkiläntie 1276,60.91171990000001,28.140998900000003,2,http://405,0,,405,,,0,,
133999,,Rikkiläntie 1219,60.908620500000005,28.147150200000002,2,http://405,0,,405,,,0,,
134000,,Rikkiläntie 1218,60.9083892,28.1476475,2,http://405,0,,405,,,0,,
134001,,Rikkiläntie 31,60.867385000000006,28.294393900000003,2,http://405,0,,405,,,0,,
134002,,Rikkiläntie 51,60.8681654,28.291603000000002,2,http://405,0,,405,,,0,,
134003,,Rikkiläntie 108,60.870577100000006,28.282905400000004,2,http://405,0,,405,,,0,,
134006,,Rikkiläntie 159,60.8749796,28.279794400000004,2,http://405,0,,405,,,0,,
134007,,Ruohiantie 278,60.95804700000001,28.200516500000003,2,http://405,0,,405,,,0,,
134011,,Joutsenontie 50,60.96697340000001,28.537489100000002,2,http://405,0,,405,,,0,,
134012,,Joutsenontie 55,60.967148900000005,28.538252500000002,2,http://405,0,,405,,,0,,
134013,,Joutsenontie 360,60.9889914,28.534972200000002,2,http://405,0,,405,,,0,,
134014,,Joutsenontie 368,60.98971530000001,28.534898700000003,2,http://405,0,,405,,,0,,
134015,,Joutsenontie 568,61.003491700000005,28.516615500000004,2,http://405,0,,405,,,0,,
134016,,Joutsenontie 577,61.0042667,28.517180600000003,2,http://405,0,,405,,,0,,
134017,,Joutsenontie 728,61.009403400000004,28.540760600000002,2,http://405,0,,405,,,0,,
134018,,Joutsenontie 732,61.0093180509722,28.541963532831,2,http://405,0,,405,,,0,,
134019,,Joutsenontie 834,61.01242560000001,28.5582078,2,http://405,0,,405,,,0,,
134022,,Saimaantie 14,61.1209539,28.503349900000003,2,http://405,0,,405,,,0,,
134023,,Saimaantie 14,61.1206674,28.503368400000003,2,http://405,0,,405,,,0,,
134024,,"Penttiläntie 13, Joutsenon koulukeskus",61.114225100000006,28.509753500000002,2,http://405,0,,405,,,0,,
134025,,Penttiläntie 26 P,61.109144400000005,28.5080491,2,http://405,0,,405,,,0,,
134026,,Penttiläntie 26 E,61.1081549,28.508509200000002,2,http://405,0,,405,,,0,,
134027,,Penttiläntie 141,61.106476400000005,28.510733200000004,2,http://405,0,,405,,,0,,
134028,,Penttiläntie 158,61.10481920000001,28.511737900000004,2,http://405,0,,405,,,0,,
134029,,Penttiläntie 369,61.08723200000001,28.5160994,2,http://405,0,,405,,,0,,
134030,,Penttiläntie 369,61.087268400000006,28.516434500000003,2,http://405,0,,405,,,0,,
134031,,Penttiläntie 433,61.08184120000001,28.518915900000003,2,http://405,0,,405,,,0,,
134032,,Penttiläntie 438,61.081352800000005,28.519126200000002,2,http://405,0,,405,,,0,,
134033,,Penttiläntie 520,61.075939600000005,28.529070500000003,2,http://405,0,,405,,,0,,
134034,,Penttiläntie 529,61.07528560000001,28.529567900000004,2,http://405,0,,405,,,0,,
134035,,Penttiläntie 653,61.06651230000001,28.5418671,2,http://405,0,,405,,,0,,
134036,,Penttiläntie 656,61.06622610000001,28.542554100000004,2,http://405,0,,405,,,0,,
134037,,Saimaantie 36,61.125498900000004,28.4968858,2,http://405,0,,405,,,0,,
134038,,Saimaantie 62,61.127819900000006,28.488686700000002,2,http://405,0,,405,,,0,,
134039,,Saimaantie 64,61.1281608,28.4882601,2,http://405,0,,405,,,0,,
134040,,Putkinotkontie 25 E,61.123445800000006,28.511060000000004,2,http://405,0,,405,,,0,,
134041,,Putkinotkontie 25 P,61.12374380000001,28.511307900000002,2,http://405,0,,405,,,0,,
134043,,Viipurintie 330,61.14301400000001,28.744499500000003,4,http://405,0,,405,,,0,,
134047,,Viipurintie 662,61.116247200000004,28.761702000000003,4,http://153,0,,153,,,0,,
134055,,Vallinkoski 171,61.1361599,28.785358700000003,4,http://153,0,,153,,,0,,
134066,,Asematie 2,61.173965900000006,28.698264100000003,2,http://405,0,,405,,,0,,
134067,,Asematie 9,61.176047200000006,28.693898100000002,2,http://405,0,,405,,,0,,
134068,,Asematie 9,61.17617860000001,28.694024100000004,2,http://405,0,,405,,,0,,
134074,,Rauhantie 58,61.1793953,28.695526100000002,2,http://405,0,,405,,,0,,
134075,,Rauhantie 68,61.180196900000006,28.697217100000003,2,http://405,0,,405,,,0,,
134076,,Rauhantie 41,61.181382500000005,28.698601600000003,2,http://405,0,,405,,,0,,
134077,,Rauhantie 84,61.1817288,28.699346300000002,2,http://153,0,,153,,,0,,
134078,,Tiuruniementie 36,61.185461000000004,28.700303800000004,2,http://405,0,,405,,,0,,
134079,,Tiuruniementie 46,61.18624200000001,28.7008696,2,http://405,0,,405,,,0,,
134081,,Tiuruniementie 94,61.190346500000004,28.699338200000003,2,http://405,0,,405,,,0,,
134082,,Niskapietiläntie 105 P,61.2348757,28.9408327,4,http://153,0,,153,,,0,,
134083,,Niskapietiläntie 104 E,61.234676500000006,28.942089900000003,4,http://153,0,,153,,,0,,
134084,,Kuusela P,61.23294380000001,28.948111800000003,4,http://153,0,,153,,,0,,
134085,,Kuusela E,61.23208270000001,28.948952000000002,4,http://153,0,,153,,,0,,
134086,,Niskapietiläntie 110 P,61.231432100000006,28.950894400000003,4,http://153,0,,153,,,0,,
135173,,Merenlahdentie 228,61.0526843,28.079105900000002,1,http://405,0,,405,,,0,,
135174,,Tilsalankatu th I,61.052438300000006,28.0737373,1,http://405,0,,405,,,0,,
135175,,Tilsalankatu th L,61.05262030000001,28.071537900000003,1,http://405,0,,405,,,0,,
135196,,Pajarilantie 118,61.05903850000001,28.278798100000003,1,http://405,0,,405,,,0,,
135197,,Pajarilantie 178,61.0584903,28.288723400000002,1,http://405,0,,405,,,0,,
135198,,Pajarilantie 181,61.0581176,28.2889425,1,http://405,0,,405,,,0,,
135199,,Pajarilantie 306,61.05082420000001,28.304022300000003,2,http://405,0,,405,,,0,,
135200,,Pajarilantie 309,61.05055670000001,28.304625800000004,2,http://405,0,,405,,,0,,
135201,,Pajarilantie 395,61.047321600000004,28.318719200000004,2,http://405,0,,405,,,0,,
135202,,Pajarilantie 453,61.0439865,28.326926800000003,2,http://405,0,,405,,,0,,
135203,,Pajarilantie 457,61.0437311,28.327584700000003,2,http://405,0,,405,,,0,,
135204,,Pajarilantie 520,61.04053390000001,28.336529600000002,2,http://405,0,,405,,,0,,
135210,,Utrasaarentie 50,61.08447890000001,28.332657100000002,1,http://405,0,,405,,,0,,
135211,,Utrasaarentie 92,61.0881485,28.331631,1,http://405,0,,405,,,0,,
135212,,Utrasaarentie 98,61.0885042,28.3315437,1,http://405,0,,405,,,0,,
135213,,Utrasaarentie 130,61.091345200000006,28.331100300000003,1,http://405,0,,405,,,0,,
135214,,Utrasaarentie 135,61.091984000000004,28.330826200000004,1,http://405,0,,405,,,0,,
135215,,Utrasaarentie 174,61.094878400000006,28.3287362,1,http://405,0,,405,,,0,,
135216,,Utrasaarentie 174,61.0948215,28.3286489,1,http://405,0,,405,,,0,,
135217,,Muukonniemi,61.09638880000001,28.3242152,1,http://405,0,,405,,,0,,
135219,,Kaarnantie 20,61.016456500000004,28.407480200000002,2,http://405,0,,405,,,0,,
135220,,Kaarnantie 28,61.016283400000006,28.4089695,2,http://405,0,,405,,,0,,
135221,,Kaarnantie 85,61.017149700000004,28.4192129,2,http://405,0,,405,,,0,,
135222,,Kaarnantie 88,61.017321300000006,28.419511800000002,2,http://405,0,,405,,,0,,
135223,,Kaarnantie 113,61.017374200000006,28.424151800000004,2,http://405,0,,405,,,0,,
135224,,Kaarnantie 121,61.016867600000005,28.425674500000003,2,http://405,0,,405,,,0,,
135225,,Kaarnantie 143,61.01631760000001,28.4293866,2,http://405,0,,405,,,0,,
135226,,Kaarnantie 144,61.0163852,28.429740900000002,2,http://405,0,,405,,,0,,
135227,,Kaarnantie 191,61.014299300000005,28.436428000000003,2,http://405,0,,405,,,0,,
135228,,Kaarnantie 197,61.0140274,28.436843800000002,2,http://405,0,,405,,,0,,
135229,,Kaarnantie 223,61.0124927,28.440859300000003,2,http://405,0,,405,,,0,,
135230,,Kaarnantie 231,61.0119491,28.440947500000004,2,http://405,0,,405,,,0,,
135231,,Kaarnantie 277,61.009886300000005,28.446800600000003,2,http://405,0,,405,,,0,,
135232,,Kaarnantie 283,61.00923480000001,28.446962100000004,2,http://405,0,,405,,,0,,
135233,,Kaarnantie 300,61.00866750000001,28.448225,2,http://405,0,,405,,,0,,
135234,,Kaarnantie 442,61.0106881,28.473099400000002,2,http://405,0,,405,,,0,,
135235,,Kaarnantie 446,61.0104546,28.473531500000004,2,http://405,0,,405,,,0,,
135240,,Ilottulantie 225,61.1011304,28.366775300000004,2,http://405,0,,405,,,0,,
135241,,Ilottulantie 228,61.101378700000005,28.367078400000004,2,http://405,0,,405,,,0,,
135242,,Ilottulantie 276,61.1048686,28.371226600000004,2,http://405,0,,405,,,0,,
135243,,Ilottulantie 282,61.1052881,28.371137100000002,2,http://405,0,,405,,,0,,
135244,,Ilottulantie 340,61.11001660000001,28.369424000000002,2,http://405,0,,405,,,0,,
135245,,Ilottulantie 339,61.110035800000006,28.369238900000003,2,http://405,0,,405,,,0,,
135246,,Ilottulantie 428,61.1168844,28.3749986,2,http://405,0,,405,,,0,,
135247,,Ilottulantie 459,61.1186129,28.379668000000002,2,http://405,0,,405,,,0,,
135248,,Ilottulantie 430,61.117195800000005,28.3752169,2,http://405,0,,405,,,0,,
135249,,Ilottulantie 461,61.11879940000001,28.379983100000004,2,http://405,0,,405,,,0,,
135250,,Haukilahdentie 619,61.1229311,28.386391300000003,2,http://405,0,,405,,,0,,
135251,,Haukilahdentie 614,61.1234042,28.3873384,2,http://405,0,,405,,,0,,
135252,,Haukilahdentie 538,61.125872400000006,28.398511000000003,2,http://405,0,,405,,,0,,
135253,,Haukilahdentie 533,61.12578200000001,28.399468100000004,2,http://405,0,,405,,,0,,
135254,,Haukilahdentie 501,61.126198800000004,28.405295300000002,2,http://405,0,,405,,,0,,
135255,,Haukilahdentie 494,61.12609510000001,28.406842700000002,2,http://405,0,,405,,,0,,
135256,,Haukilahdentie 479,61.125936700000004,28.4097247,2,http://405,0,,405,,,0,,
135257,,Haukilahdentie 475,61.1256776,28.410361500000004,2,http://405,0,,405,,,0,,
135258,,Haukilahdentie 422,61.126374500000004,28.419563600000004,2,http://405,0,,405,,,0,,
135259,,Haukilahdentie 419,61.126308400000006,28.420292600000003,2,http://405,0,,405,,,0,,
135260,,Haukilahdentie 378 L,61.126558300000006,28.428004100000003,2,http://405,0,,405,,,0,,
135261,,Haukilahdentie 378 I,61.12655350000001,28.428918400000004,2,http://405,0,,405,,,0,,
135262,,Haukilahdentie 108,61.127072500000004,28.432472600000004,2,http://405,0,,405,,,0,,
135263,,Haukilahdentie 47,61.127035500000005,28.433511400000004,2,http://405,0,,405,,,0,,
135264,,Haukilahdentie 82,61.1275132,28.439627,2,http://405,0,,405,,,0,,
135265,,Haukilahdentie 39,61.12749000000001,28.440812200000003,2,http://405,0,,405,,,0,,
135266,,Haukilahdentie 46,61.12681490000001,28.4518802,2,http://405,0,,405,,,0,,
135267,,Haukilahdentie 46,61.126748400000004,28.452988500000004,2,http://405,0,,405,,,0,,
135268,,Haukilahdentie 40,61.12613470000001,28.456742000000002,2,http://405,0,,405,,,0,,
135269,,Haukilahdentie 37,61.125822500000005,28.4587177,2,http://405,0,,405,,,0,,
135270,,Teollisuustie th L,61.122514,28.471166300000004,2,http://405,0,,405,,,0,,
135271,,Teollisuustie th I,61.1229226,28.4736389,2,http://405,0,,405,,,0,,
135272,,Honkalahdentie th E,61.1262035,28.477776400000003,2,http://405,0,,405,,,0,,
135273,,Haukilahdentie 18,61.126847100000006,28.480302500000004,2,http://405,0,,405,,,0,,
135274,,Konnuntie 589,60.98459150000001,28.6698744,2,http://405,0,,405,,,0,,
135275,,Pulp P,61.12582810000001,28.450072600000002,2,http://405,0,,405,,,0,,
135276,,Silmukuja th E,61.12180060000001,28.447206500000004,2,http://405,0,,405,,,0,,
135277,,Silmukuja th P,61.122453500000006,28.447549100000003,2,http://405,0,,405,,,0,,
135278,,Uus-Ahvenlammentie th E,61.11816470000001,28.447092800000004,2,http://405,0,,405,,,0,,
135279,,Vanha-ahvenlammentie th P,61.11887000000001,28.4472552,2,http://405,0,,405,,,0,,
135280,,Ahvenlammentie 28,61.116486300000005,28.447833400000004,2,http://405,0,,405,,,0,,
135281,,Ahvenlammentie 26,61.1153406,28.447934500000002,2,http://405,0,,405,,,0,,
135282,,Ahvenlammentie/Kuutostie P,61.110170800000006,28.454291200000004,2,http://405,0,,405,,,0,,
135283,,Karjalaisentie 9,61.107817100000005,28.453915700000003,2,http://405,0,,405,,,0,,
135284,,Messutie th P,61.1064378,28.454874500000003,2,http://405,0,,405,,,0,,
135285,,Messutie th E,61.105455000000006,28.4556198,2,http://405,0,,405,,,0,,
135286,,Lappeentie 2 I,61.116376,28.505001600000003,2,http://405,0,,405,,,0,,
135287,,Lappeentie 2 L,61.1160531,28.503668100000002,2,http://405,0,,405,,,0,,
135288,,Lappeentie 46 I,61.1120657,28.490667600000002,2,http://405,0,,405,,,0,,
135289,,Lappeentie 46 L,61.1119393,28.489790400000004,2,http://405,0,,405,,,0,,
135290,,Lappeentie 9,61.111559500000006,28.488366600000003,2,http://405,0,,405,,,0,,
135291,,Taimitarhantie th I,61.1080564,28.475772400000004,2,http://405,0,,405,,,0,,
135292,,Taimitarhantie th L,61.107865200000006,28.474478,2,http://405,0,,405,,,0,,
135293,,Kastarintie th I,61.1068611,28.469757400000002,2,http://405,0,,405,,,0,,
135294,,Kastarintie th E,61.106143,28.4665761,2,http://405,0,,405,,,0,,
135295,,Lappeentie 302,61.10398980000001,28.461724500000003,2,http://405,0,,405,,,0,,
135296,,Lappeentie 309,61.10383660000001,28.4600484,2,http://405,0,,405,,,0,,
135300,,Rantatie 122,61.128262400000004,28.5164399,2,http://405,0,,405,,,0,,
135301,,Rantatie 136,61.12863480000001,28.518445800000002,2,http://405,0,,405,,,0,,
135302,,Rantatie 231,61.133318,28.5318438,2,http://405,0,,405,,,0,,
135303,,Rantatie 238,61.13380910000001,28.532186300000003,2,http://405,0,,405,,,0,,
135304,,Rantatie 330,61.14017090000001,28.541050400000003,2,http://405,0,,405,,,0,,
135305,,Rantatie 335,61.14064380000001,28.541791900000003,2,http://405,0,,405,,,0,,
135306,,Rantatie 453,61.1494726,28.5533034,2,http://405,0,,405,,,0,,
135307,,Rantatie 457,61.14960730000001,28.554046200000002,2,http://405,0,,405,,,0,,
135308,,Rantatie 530,61.15240060000001,28.566251500000003,2,http://405,0,,405,,,0,,
135309,,Rantatie 541,61.15285190000001,28.567774600000003,2,http://405,0,,405,,,0,,
135310,,Rantatie 590,61.15378380000001,28.576695700000002,2,http://405,0,,405,,,0,,
135311,,Rantatie 598,61.153770900000005,28.578446200000002,2,http://405,0,,405,,,0,,
135312,,Rantatie 643,61.1537506,28.586178300000004,2,http://405,0,,405,,,0,,
135313,,Rantatie 651,61.153415900000006,28.587450300000004,2,http://405,0,,405,,,0,,
135314,,Rantatie 710,61.15442420000001,28.597884500000003,2,http://405,0,,405,,,0,,
135315,,Rantatie 715,61.15439140000001,28.599139400000002,2,http://405,0,,405,,,0,,
135316,,Rantatie 768,61.153691,28.6087166,2,http://405,0,,405,,,0,,
135317,,Rantatie 774,61.15338800000001,28.609783000000004,2,http://405,0,,405,,,0,,
135319,,Aholantie 609,61.12535200000001,28.702362900000004,2,http://405,0,,405,,,0,,
135320,,Aholantie 626,61.125604900000006,28.705039300000003,2,http://405,0,,405,,,0,,
135321,,Aholantie 664,61.127581500000005,28.710656500000002,2,http://405,0,,405,,,0,,
135322,,Aholantie 671,61.12786330000001,28.7120631,2,http://405,0,,405,,,0,,
135323,,Aholantie 730,61.130144900000005,28.721494200000002,2,http://405,0,,405,,,0,,
135324,,Aholantie 738,61.130250000000004,28.722683300000003,2,http://405,0,,405,,,0,,
135325,,Aholantie 800,61.134387000000004,28.730832600000003,2,http://405,0,,405,,,0,,
135326,,Aholantie 812,61.13515530000001,28.731962700000004,2,http://405,0,,405,,,0,,
135327,,Aholantie 840,61.1383111,28.737843700000003,2,http://405,0,,405,,,0,,
154362,,Navetanmutka,61.18195420000001,28.798789400000004,4,http://153,0,,153,,,0,,
154363,,Navetanmutka,61.1818304,28.799046500000003,4,http://153,0,,153,,,0,,
154364,,Vuoksenniskantie 90,61.226558100000005,28.836141,4,http://153,0,,153,,,0,,
154366,,Paperharjuntie 57,61.21935810000001,28.761894200000004,4,http://153,0,,153,,,0,,
154367,,Paperharjuntie 57,61.219466600000004,28.762007200000003,4,http://153,0,,153,,,0,,
154368,,Paperharjuntie 43,61.214913100000004,28.767047100000003,4,http://153,0,,153,,,0,,
154371,,Paperharjuntie 1,61.2072325,28.766145700000003,4,http://153,0,,153,,,0,,
154372,,Paperharjuntie 1,61.2069631,28.766286400000002,4,http://153,0,,153,,,0,,
154373,,Tainionkosken koulu,61.2080983,28.779180000000004,4,http://153,0,,153,,,0,,
154374,,Tainionkosken koulu,61.20803790000001,28.7794522,4,http://153,0,,153,,,0,,
154375,,Ritikanranta P,61.20376960000001,28.777994000000003,4,http://153,0,,153,,,0,,
154376,,Ritikanranta E,61.203698700000004,28.777612400000002,4,http://153,0,,153,,,0,,
154378,,Keskuskatu-Ritvankuja,61.18338740000001,28.749791800000004,4,http://153,0,,153,,,0,,
154379,,Keskuskatu-Ritvankuja,61.18336920000001,28.750936900000003,4,http://153,0,,153,,,0,,
154380,,Korvenkannantie 18,61.175806200000004,28.744462400000003,4,http://153,0,,153,,,0,,
154381,,Korvenkannantie 18,61.175343000000005,28.745189200000002,4,http://153,0,,153,,,0,,
154382,,Saareksiinmäki I,61.172134500000006,28.7483092,4,http://153,0,,153,,,0,,
154383,,Saareksiinmäki L,61.1723233,28.748236700000003,4,http://153,0,,153,,,0,,
154386,,Veteraanitalo,61.16144260000001,28.8040966,4,http://153,0,,153,,,0,,
154387,,Veteraanitalo,61.1612598,28.803913100000003,4,http://153,0,,153,,,0,,
154388,,Ensontie 55,61.158431500000006,28.806722200000003,4,http://153,0,,153,,,0,,
154389,,Ensontie 55,61.15812510000001,28.806605500000003,4,http://153,0,,153,,,0,,
154390,,Kaukopäänkatu,61.2365374,28.868850300000002,4,http://153,0,,153,,,0,,
154391,,Kaukopäänkatu,61.23651340000001,28.8685633,4,http://153,0,,153,,,0,,
154392,,Teppanala,61.153857,28.810419200000002,4,http://153,0,,153,,,0,,
154393,,Teppanala,61.15322580000001,28.810681100000004,4,http://153,0,,153,,,0,,
154394,,Imatrankoskentie 20,61.166401300000004,28.7883573,4,http://153,0,,153,,,0,,
154397,,Huminan mutka,61.2407558,28.861116600000003,4,http://153,0,,153,,,0,,
154398,,Kaukopäänkatu 6,61.2411924,28.860686100000002,4,http://153,0,,153,,,0,,
154399,,Vuoksenniskantie 97,61.2257911,28.8347684,4,http://153,0,,153,,,0,,
154400,,Vuoksenniska P,61.22428250000001,28.8323375,4,http://153,0,,153,,,0,,
154401,,Vuoksenniska E,61.22425930000001,28.831973800000004,4,http://153,0,,153,,,0,,
154402,,Torikatu 1,61.224175300000006,28.8382107,4,http://153,0,,153,,,0,,
154403,,Torikatu 1,61.224181400000006,28.838929800000003,4,http://153,0,,153,,,0,,
154404,,Vuoksenniskantie 48 P,61.22132990000001,28.828870000000002,4,http://153,0,,153,,,0,,
154405,,Vuoksenniskantie 48 E,61.22145520000001,28.828696300000004,4,http://153,0,,153,,,0,,
154406,,Lakasenpelto,61.21814630000001,28.832248300000003,4,http://153,0,,153,,,0,,
154407,,Lakasenpelto,61.21817050000001,28.832781900000004,4,http://153,0,,153,,,0,,
154408,,Mäntyrinne,61.2190232,28.824379500000003,4,http://153,0,,153,,,0,,
154410,,Mäntyrinne,61.219129300000006,28.825390000000002,4,http://153,0,,153,,,0,,
154411,,Vuoksenniskantie 31,61.218017800000005,28.814939700000004,4,http://153,0,,153,,,0,,
154412,,Vuoksenniskantie 31,61.218226900000005,28.814882300000004,4,http://153,0,,153,,,0,,
154413,,Keskuskatu-Karhumäenkatu,61.1868891,28.7629717,4,http://153,0,,153,,,0,,
154416,,Joutsenonkatu 45,61.2004694,28.758238000000002,4,http://153,0,,153,,,0,,
154417,,Joutsenonkatu 45,61.200555300000005,28.758904800000003,4,http://153,0,,153,,,0,,
154418,,Paperharjuntie 4 P,61.20359930000001,28.761864000000003,4,http://153,0,,153,,,0,,
154419,,Paperharjuntie 4 E,61.20346850000001,28.761558100000002,4,http://153,0,,153,,,0,,
154420,,Joutsenonkatu 24,61.2007636,28.764689900000004,4,http://153,0,,153,,,0,,
154421,,Joutsenonkatu 27,61.200498200000006,28.766133300000003,4,http://153,0,,153,,,0,,
154422,,Joutsenonkatu 5,61.198791500000006,28.772902500000004,4,http://153,0,,153,,,0,,
154423,,Joutsenonkatu 5,61.198531,28.773351500000004,4,http://153,0,,153,,,0,,
154427,,Korvenkannantie 38 P,61.1796561,28.742196600000003,4,http://153,0,,153,,,0,,
154428,,Korvenkannantie 38 E,61.17949410000001,28.741893500000003,4,http://153,0,,153,,,0,,
154429,,Ensontie 391,61.1396378,28.817492400000003,4,http://153,0,,153,,,0,,
154430,,Ensontie 391,61.138925300000004,28.8176023,4,http://153,0,,153,,,0,,
154431,,Kartanonkatu 10,61.197962800000006,28.8083975,4,http://153,0,,153,,,0,,
154432,,Sotkulammentie 21,61.189905100000004,28.800439700000002,4,http://153,0,,153,,,0,,
154437,,Sotkulammentie 37,61.1935701,28.8036166,4,http://153,0,,153,,,0,,
154438,,Sotkulampi,61.19328730000001,28.8031563,4,http://153,0,,153,,,0,,
154439,,Imatrankoskentie 23,61.16592790000001,28.791646600000004,4,http://153,0,,153,,,0,,
154440,,Imatrankoskentie 29,61.1655907,28.796313500000004,4,http://153,0,,153,,,0,,
154441,,Imatrankoskentie 29,61.165740400000004,28.796576,4,http://153,0,,153,,,0,,
154444,,Imatran kylpylä,61.21127440000001,28.725022100000004,4,http://153,0,,153,,,0,,
154445,,Lammassaarentie 5,61.2085804,28.732856,4,http://153,0,,153,,,0,,
154446,,Lammassaarentie 5,61.208842800000006,28.732897500000004,4,http://153,0,,153,,,0,,
154447,,Ukonniemi,61.20591280000001,28.733067500000004,4,http://153,0,,153,,,0,,
154450,,Jäähalli E,61.2005819,28.7398555,4,http://153,0,,153,,,0,,
154451,,Mehiläismäki,61.18462,28.795910900000003,4,http://153,0,,153,,,0,,
154452,,Mehiläismäki,61.184532000000004,28.796098000000004,4,http://153,0,,153,,,0,,
154453,,Linnansuontie,61.17947290000001,28.8102562,4,http://153,0,,153,,,0,,
154454,,Linnansuontie,61.179329200000005,28.811387900000003,4,http://153,0,,153,,,0,,
154455,,Savikannantie 199,61.178164800000005,28.813782300000003,4,http://153,0,,153,,,0,,
154456,,Tainionkoskentie 113,61.2129624,28.781247200000003,4,http://153,0,,153,,,0,,
154458,,Saimaantie,61.213326300000006,28.7785681,4,http://153,0,,153,,,0,,
154459,,Tainionkoskentie 113,61.21242790000001,28.779698600000003,4,http://153,0,,153,,,0,,
154460,,Saimaantie 19,61.218035300000004,28.776350500000003,4,http://153,0,,153,,,0,,
154461,,Saimaantie 19,61.217949000000004,28.776146200000003,4,http://153,0,,153,,,0,,
154462,,Saimaantie 31,61.219959700000004,28.772931000000003,4,http://153,0,,153,,,0,,
154463,,Saimaantie 31,61.2198867,28.772895100000003,4,http://153,0,,153,,,0,,
154466,,Savikannantie 33,61.167252100000006,28.809694500000003,4,http://153,0,,153,,,0,,
154467,,Savikannantie 33,61.167331600000004,28.810012300000004,4,http://153,0,,153,,,0,,
154468,,Imatran kaupungintalo P,61.191709,28.777041300000004,4,http://153,0,,153,,,0,,
154469,,Imatran uimahalli P,61.18593680000001,28.778555100000002,4,http://153,0,,153,,,0,,
154470,,Mansikkalan koulukeskus P,61.18321660000001,28.780246200000004,4,http://153,0,,153,,,0,,
154471,,Mansikkalan koulukeskus E,61.183081400000006,28.7798243,4,http://153,0,,153,,,0,,
154472,,Huhtanen,61.233131900000004,28.931914900000002,4,http://153,0,,153,,,0,,
154473,,Niskapietiläntie 97,61.2366876,28.931239,4,http://153,0,,153,,,0,,
154474,,Niskapietiläntie 97,61.236311500000006,28.9318689,4,http://153,0,,153,,,0,,
154475,,Pistetalot P,61.167663000000005,28.7803557,4,http://153,0,,153,,,0,,
154476,,Pistetalot E,61.1674926,28.780294700000002,4,http://153,0,,153,,,0,,
154479,,Koulukatu 54,61.173440400000004,28.759610600000002,4,http://153,0,,153,,,0,,
154480,,Koulukatu 54,61.17322970000001,28.759773900000003,4,http://153,0,,153,,,0,,
154482,,Lappeentie 25 E,61.171463300000006,28.761808300000002,4,http://153,0,,153,,,0,,
154484,,Esterinkatu 21,61.172073600000004,28.7651007,4,http://153,0,,153,,,0,,
154485,,Heikinkatu 7,61.17299810000001,28.7690702,4,http://153,0,,153,,,0,,
154486,,Heikinkatu 7,61.17282900000001,28.769584400000003,4,http://153,0,,153,,,0,,
154487,,Imatrankoski L,61.17030700000001,28.767708100000004,4,http://153,0,,153,,,0,,
154488,,Imatrankoski I,61.17020110000001,28.767124700000004,4,http://153,0,,153,,,0,,
154489,,Tainionkoskentie 16 P,61.172729200000006,28.775285000000004,4,http://153,0,,153,,,0,,
154490,,Tainionkoskentie 16 E,61.17268910000001,28.775651500000002,4,http://153,0,,153,,,0,,
154491,,Viipurintie 3,61.168328100000004,28.765359300000004,4,http://153,0,,153,,,0,,
154492,,Viipurintie 3,61.168179900000005,28.765708200000002,4,http://153,0,,153,,,0,,
154493,,Viipurintie 20,61.16413620000001,28.759710400000003,4,http://153,0,,153,,,0,,
154494,,Viipurintie 20,61.16384010000001,28.75973,4,http://153,0,,153,,,0,,
154495,,Viipurintie 36,61.16212290000001,28.757897200000002,4,http://153,0,,153,,,0,,
154496,,Viipurintie 36,61.161446000000005,28.7570474,4,http://153,0,,153,,,0,,
154498,,Niskapietiläntie 92,61.23731430000001,28.926911500000003,4,http://153,0,,153,,,0,,
154499,,Niskapietiläntie 88,61.2374044,28.9269722,4,http://153,0,,153,,,0,,
154500,,Niskapietiläntie 74,61.2380678,28.9189344,4,http://153,0,,153,,,0,,
154501,,Niskapietiläntie 74,61.23793980000001,28.919093800000002,4,http://153,0,,153,,,0,,
154502,,Niskapietiläntie 49,61.238526900000004,28.910735100000004,4,http://153,0,,153,,,0,,
154503,,Niskapietiläntie 49,61.238567200000006,28.9111219,4,http://153,0,,153,,,0,,
154504,,Niskapietiläntie 39,61.23996410000001,28.905452200000003,4,http://153,0,,153,,,0,,
154505,,Niskapietiläntie 41,61.239973000000006,28.904369900000003,4,http://153,0,,153,,,0,,
154506,,Karjalantie 577,61.208510200000006,28.819704100000003,4,http://153,0,,153,,,0,,
154508,,Viipurintie 54 P,61.159817600000004,28.756795800000003,4,http://153,0,,153,,,0,,
154509,,Viipurintie 54 E,61.16011090000001,28.756578700000002,4,http://153,0,,153,,,0,,
154510,,Meltola,61.15664110000001,28.757360900000002,4,http://153,0,,153,,,0,,
154511,,Meltola E,61.15625740000001,28.757082000000004,4,http://153,0,,153,,,0,,
154512,,Meltolan koulu,61.15320990000001,28.763102300000003,4,http://153,0,,153,,,0,,
154515,,Viipurintie 88,61.15128250000001,28.754410000000004,4,http://153,0,,153,,,0,,
154516,,Viipurintie 84 P,61.15273930000001,28.755921700000002,4,http://153,0,,153,,,0,,
154522,,Pakkaskatu,61.19930060000001,28.816686400000002,4,http://153,0,,153,,,0,,
154523,,Vuoksenniskantie 7,61.20526220000001,28.790669700000002,4,http://153,0,,153,,,0,,
154525,,Sulattimo,61.213435100000005,28.802739400000004,4,http://153,0,,153,,,0,,
154526,,Sulattimo,61.21248810000001,28.8001177,4,http://153,0,,153,,,0,,
154531,,Kolmen ristin kirkko,61.23670080000001,28.8533833,4,http://153,0,,153,,,0,,
154532,,Kolmen ristin kirkko,61.23655360000001,28.853365000000004,4,http://153,0,,153,,,0,,
154535,,Niskapietiläntie 16,61.2387615,28.881218600000004,4,http://153,0,,153,,,0,,
154536,,Niskapietiläntie 16,61.238922,28.8818468,4,http://153,0,,153,,,0,,
154537,,Rautio,61.23767420000001,28.8735554,4,http://153,0,,153,,,0,,
154538,,Raution päiväkoti,61.23827730000001,28.874456300000002,4,http://153,0,,153,,,0,,
154543,,Ensontie 337,61.14389130000001,28.814162000000003,4,http://153,0,,153,,,0,,
154544,,Ensontie 337,61.143444,28.814368700000003,4,http://153,0,,153,,,0,,
154545,,Viipurintie 118,61.14528860000001,28.748026600000003,4,http://153,0,,153,,,0,,
154546,,Viipurintie 112,61.146584600000004,28.7502391,4,http://153,0,,153,,,0,,
154549,,Tiehaaranmäki P,61.233126000000006,28.846371200000004,4,http://153,0,,153,,,0,,
154550,,Tiehaaranmäki,61.23247980000001,28.845035600000003,4,http://153,0,,153,,,0,,
154551,,Vuoksenniskan koulukeskus P,61.2280038,28.839738000000004,4,http://153,0,,153,,,0,,
154552,,Vuokseniskan koulukeskus E,61.22758640000001,28.8384235,4,http://153,0,,153,,,0,,
154553,,Vuoksenniskantie 19,61.2105698,28.796224300000002,4,http://153,0,,153,,,0,,
154554,,Tornansilta,61.2103795,28.794273300000004,4,http://153,0,,153,,,0,,
154555,,Harakka,61.21251000000001,28.79005,4,http://153,0,,153,,,0,,
154556,,Harakka,61.212313200000004,28.790698700000004,4,http://153,0,,153,,,0,,
154557,,Vuoksenniskantie 19,61.209651300000004,28.793918500000004,4,http://153,0,,153,,,0,,
154558,,Liekokatu 9,61.2013856,28.7933191,4,http://153,0,,153,,,0,,
154559,,Liekokatu 9,61.201070300000005,28.793571500000002,4,http://153,0,,153,,,0,,
154560,,Rouskunkatu 3,61.201508100000005,28.796722700000004,4,http://153,0,,153,,,0,,
154561,,Rouskunkatu 3,61.201653900000004,28.796906900000003,4,http://153,0,,153,,,0,,
154562,,Sienimäenkatu 7,61.203164300000005,28.797985300000004,4,http://153,0,,153,,,0,,
154564,,Liekokatu 2,61.2037843,28.793264000000004,4,http://153,0,,153,,,0,,
154565,,Liekokatu 2,61.20370520000001,28.793459600000002,4,http://153,0,,153,,,0,,
154566,,Ensontie 27,61.16467970000001,28.7996507,4,http://153,0,,153,,,0,,
154567,,Rajapatsas,61.164106000000004,28.800390500000002,4,http://153,0,,153,,,0,,
154577,,Lammassaarentie 2,61.19681200000001,28.7453028,4,http://153,0,,153,,,0,,
154578,,Niskapietiläntie 33,61.2412076,28.896434400000004,4,http://153,0,,153,,,0,,
154579,,Niskapietiläntie 33,61.241586000000005,28.8958608,4,http://153,0,,153,,,0,,
154581,,Upseerikerho,61.23991770000001,28.889520200000003,4,http://153,0,,153,,,0,,
154582,,Upseerikerho,61.2403467,28.889985900000003,4,http://153,0,,153,,,0,,
154585,,Keskuskeittiö,61.183016900000005,28.747241300000002,4,http://153,0,,153,,,0,,
154586,,Keskuskatu-Irmankatu,61.183005200000004,28.745856800000002,4,http://153,0,,153,,,0,,
154587,,Keskuskatu-Muovikuja,61.184989300000005,28.7576965,4,http://153,0,,153,,,0,,
154589,,Koulukatu 35,61.177236300000004,28.7617119,4,http://153,0,,153,,,0,,
154590,,Koulukatu 31,61.17793460000001,28.762495500000004,4,http://153,0,,153,,,0,,
154591,,Paajala,61.18032650000001,28.765303000000003,4,http://153,0,,153,,,0,,
154592,,Paajala,61.18075470000001,28.766514900000004,4,http://153,0,,153,,,0,,
154593,,Karjalantie 577,61.20757030000001,28.819160900000004,4,http://153,0,,153,,,0,,
154602,,Imatran uimahalli E,61.1858537,28.777968800000004,4,http://153,0,,153,,,0,,
154603,,Sotkulammentie 19,61.189181100000006,28.7995781,4,http://153,0,,153,,,0,,
154605,,Joutsenonkatu 48,61.198661200000004,28.7534008,4,http://153,0,,153,,,0,,
154606,,Joutsenonkatu 48,61.19891030000001,28.753577800000002,4,http://153,0,,153,,,0,,
154607,,Virasoja,61.2133199,28.8257134,4,http://153,0,,153,,,0,,
154608,,Virasoja,61.2126675,28.8244332,4,http://153,0,,153,,,0,,
154610,,Savikannantie 128,61.1717645,28.813132600000003,4,http://153,0,,153,,,0,,
154611,,Savikannantie 128,61.17139470000001,28.813280700000004,4,http://153,0,,153,,,0,,
154612,,Ensontie 279,61.14872140000001,28.813515600000002,4,http://153,0,,153,,,0,,
154613,,Ensontie 279,61.148395900000004,28.813266000000002,4,http://153,0,,153,,,0,,
171562,,Vanha Viipurintie 998,60.9845363,28.325203800000004,2,http://405,0,,405,,,0,,
171563,,Vanha Viipurintie 1009,60.983577800000006,28.325677300000002,2,http://405,0,,405,,,0,,
183097,,Jakola,61.1341851,28.821810100000004,4,http://153,0,,153,,,0,,
187326,,Ilottulantie 22,61.0876816,28.346843900000003,2,http://405,0,,405,,,0,,
187327,,Ilottulantie 75,61.09065150000001,28.3537816,2,http://405,0,,405,,,0,,
187328,,Ilottulantie 82,61.0911807,28.353649800000003,2,http://405,0,,405,,,0,,
187329,,Ilottulantie 119,61.09428440000001,28.3535727,2,http://405,0,,405,,,0,,
187382,,Ilottulantie 123,61.09459590000001,28.354425400000004,2,http://405,0,,405,,,0,,
188290,,Kuutostie 2598,61.08010530000001,28.334564600000004,2,http://405,0,,405,,,0,,
188292,,Kuutostie 2619,61.080645800000006,28.3372172,2,http://405,0,,405,,,0,,
188294,,Kuutostie 2783,61.0901891,28.3613402,2,http://405,0,,405,,,0,,
188296,,Kuutostie 2816,61.0924716,28.3651112,2,http://405,0,,405,,,0,,
188491,,Lemi th E,61.0502145,28.0155926,2,http://405,0,,405,,,0,,
190323,,Kuutostie ramppi Lampikangas I,61.1099219,28.455508100000003,2,http://405,0,,405,,,0,,
205143,,Armilankatu 30 keskustaan,61.0576725,28.200067100000002,1,http://405,0,,405,,,0,,
205144,,Armilankatu 30 keskustasta,61.057513400000005,28.1997813,1,http://405,0,,405,,,0,,
205145,,Armilankatu 38 keskustaan,61.058168200000004,28.205838900000003,1,http://405,0,,405,,,0,,
205146,,Armilankatu 38 keskustasta,61.05803530000001,28.205998800000003,1,http://405,0,,405,,,0,,
205147,,Armilankatu 46 keskustaan,61.058617600000005,28.211098000000003,1,http://405,0,,405,,,0,,
205148,,Armilankatu 46 keskustasta,61.05856490000001,28.2122284,1,http://405,0,,405,,,0,,
205149,,Lauritsala E,61.0723691,28.264154700000002,1,http://405,0,,405,,,0,,
205150,,Lauritsala P,61.072417800000004,28.2645595,1,http://405,0,,405,,,0,,
205151,,Eteläkatu keskustasta,61.0462502,28.232044300000002,1,http://405,0,,405,,,0,,
205153,,Hakalinkatu 11 keskustasta,61.0743475,28.276853000000003,1,http://405,0,,405,,,0,,
205154,,Hakalinkatu 28a keskustaan,61.073702100000006,28.284179,1,http://405,0,,405,,,0,,
205155,,Hakalinkatu 37 keskustasta,61.073531900000006,28.284578900000003,1,http://405,0,,405,,,0,,
205156,,Hakalinkatu 8 keskustaan,61.074471700000004,28.2777664,1,http://405,0,,405,,,0,,
205157,,Hakalintie-Kartanontie keskustaan,61.0754651,28.274080200000004,1,http://405,0,,405,,,0,,
205158,,Hallituskatu 1 keskustasta,61.069777900000005,28.250619900000004,1,http://405,0,,405,,,0,,
205159,,Hallituskatu 15 keskustasta,61.0709919,28.254983700000004,1,http://405,0,,405,,,0,,
205160,,Hallituskatu 2 keskustaan,61.069885400000004,28.2503601,1,http://405,0,,405,,,0,,
205161,,Hallituskatu 24 keskustaan,61.072767500000005,28.263225400000003,1,http://405,0,,405,,,0,,
205162,,Hallituskatu 35 keskustasta,61.07259320000001,28.263137600000004,1,http://405,0,,405,,,0,,
205163,,Hallituskatu 41 keskustasta,61.07299080000001,28.267312800000003,1,http://405,0,,405,,,0,,
205164,,Hallituskatu 42 keskustaan,61.073266100000005,28.268989200000004,1,http://405,0,,405,,,0,,
205165,,Hallituskatu keskustaan,61.0710776,28.254878500000004,1,http://405,0,,405,,,0,,
205166,,Hallituskatu-Itsenäisyydenkatu keskustaan,61.0718936,28.257852600000003,1,http://405,0,,405,,,0,,
205167,,Hallituskatu-Itsenäisyydenkatu keskustasta,61.0720438,28.258961300000003,1,http://405,0,,405,,,0,,
205168,,Harapaisentie 25 P,61.0514178,28.210698900000004,1,http://405,0,,405,,,0,,
205170,,Harapaisentie 9 P,61.049606000000004,28.207644000000002,1,http://405,0,,405,,,0,,
205172,,Helsingintie-Huhtiniemi keskustaan,61.05169610000001,28.1445545,1,http://405,0,,405,,,0,,
205173,,Helsingintie-Huhtiniemi keskustasta,61.0520009,28.145130500000004,1,http://405,0,,405,,,0,,
205174,,Helsingintie-Kourula keskustaan,61.0500071,28.134421000000003,1,http://405,0,,405,,,0,,
205175,,Helsingintie-Kourula keskustasta,61.050263400000006,28.134217500000002,1,http://405,0,,405,,,0,,
205176,,Helsingintie-Lavolankatu keskustaan,61.0550514,28.175880700000004,1,http://405,0,,405,,,0,,
205177,,Helsingintie-Lavolankatu keskustasta,61.0552477,28.174584600000003,1,http://405,0,,405,,,0,,
205178,,Helsingintie-leirintäalue keskustaan,61.0531999,28.155118700000003,1,http://405,0,,405,,,0,,
205179,,Helsingintie-leirintäalue keskustasta,61.05316740000001,28.153042700000004,1,http://405,0,,405,,,0,,
205180,,Helsingintie-Merenlahdentie keskustasta,61.045289800000006,28.113714100000003,1,http://405,0,,405,,,0,,
205181,,Helsingintie-Puolakatu keskustaan,61.04827,28.1247125,1,http://405,0,,405,,,0,,
205182,,Helsingintie-Puolakatu keskustasta,61.048093400000006,28.122693,1,http://405,0,,405,,,0,,
205183,,Helsingintie-Skinnarilankatu keskustaan,61.046503300000005,28.118013800000003,1,http://405,0,,405,,,0,,
205184,,Hiessillankatu 3 keskustaan,61.0387381,28.227063700000002,1,http://405,0,,405,,,0,,
205185,,Hiessillankatu 5 keskustaan,61.03892080000001,28.222307300000004,1,http://405,0,,405,,,0,,
205186,,Hiessillankatu 6 keskustasta,61.038883000000006,28.221349900000003,1,http://405,0,,405,,,0,,
205187,,Kivisalmi,61.096484200000006,28.138351000000004,1,http://405,0,,405,,,0,,
205188,,Hovinkatu keskustaan,61.07484300000001,28.294281500000004,1,http://405,0,,405,,,0,,
205189,,Hovinkatu-Isopällinkatu keskustaan,61.073539800000006,28.291329800000003,1,http://405,0,,405,,,0,,
205190,,Hovinkatu-Isopällinkatu keskustasta,61.073482500000004,28.291582100000003,1,http://405,0,,405,,,0,,
205191,,Hovinkatu-Tuohimäenkatu keskustaan,61.0724092,28.288682800000004,1,http://405,0,,405,,,0,,
205192,,Hovinkatu-Tuohimäenkatu keskustasta,61.07224300000001,28.288775200000003,1,http://405,0,,405,,,0,,
205193,,Wäinönkatu L,61.053796000000006,28.139369600000002,1,http://405,0,,405,,,0,,
205194,,Huhtiniemenkatu 6 keskustasta,61.0533951,28.137090600000004,1,http://405,0,,405,,,0,,
205195,,Imatrantie I,61.0614337,28.204595500000003,1,http://405,0,,405,,,0,,
205196,,Imatrantie L,61.06129380000001,28.202965300000002,1,http://405,0,,405,,,0,,
205197,,Imatrantie-Kaukaankatu keskustaan,61.062851,28.218465500000004,1,http://405,0,,405,,,0,,
205198,,Keskussairaala L,61.06357570000001,28.211791,1,http://405,0,,405,,,0,,
205199,,Keskussairaala I,61.063422300000006,28.211119200000002,1,http://405,0,,405,,,0,,
205200,,Isopällinkatu 15 keskustasta,61.07185390000001,28.2948796,1,http://405,0,,405,,,0,,
205201,,Itäinen Kanavatie 2 keskustaan,61.064427800000004,28.315254600000003,1,http://405,0,,405,,,0,,
205202,,Itäinen Kanavatie-Mastokatu keskustasta,61.076745100000004,28.303770000000004,1,http://405,0,,405,,,0,,
205203,,Itäinen Kanavatie-Messikatu keskustaan,61.0746747,28.305854000000004,1,http://405,0,,405,,,0,,
205204,,Itäinen Kanavatie-Messikatu keskustasta,61.07388,28.306580800000003,1,http://405,0,,405,,,0,,
205205,,Joukahaisenkatu 35 keskustasta,61.05760730000001,28.243251600000004,1,http://405,0,,405,,,0,,
205206,,Joukahaisenkatu 44 keskustaan,61.05797510000001,28.244675500000003,1,http://405,0,,405,,,0,,
205207,,Joukahaisenkatu 57 keskustasta,61.05914190000001,28.252254100000002,1,http://405,0,,405,,,0,,
205208,,Joukahaisenkatu 64 keskustaan,61.058933,28.251,1,http://405,0,,405,,,0,,
205209,,Joukahaisenkatu 71 keskustasta,61.06087170000001,28.255829700000003,1,http://405,0,,405,,,0,,
205210,,Joukahaisenkatu 78 keskustaan,61.060475800000006,28.254679000000003,1,http://405,0,,405,,,0,,
205211,,Jupiterinkatu 7 keskustasta,61.05673900000001,28.093866400000003,1,http://405,0,,405,,,0,,
205212,,Jupiterinkatu-Jalopeurankatu keskustaan,61.05604950000001,28.094084900000002,1,http://405,0,,405,,,0,,
205214,,Kalevankatu 1 keskustasta,61.06227750000001,28.259884200000002,1,http://405,0,,405,,,0,,
205215,,Kalevankatu 23 keskustasta,61.06383410000001,28.264473600000002,1,http://405,0,,405,,,0,,
205216,,Kalevankatu 24 keskustaan,61.063598600000006,28.263416300000003,1,http://405,0,,405,,,0,,
205217,,Kalevankatu 44 keskustaan,61.065933900000005,28.267755800000003,1,http://405,0,,405,,,0,,
205218,,Kalevankatu 44 keskustasta,61.066158900000005,28.2685926,1,http://405,0,,405,,,0,,
205219,,Karhuvuorenkatu 17 keskustaan,61.045881900000005,28.2438375,1,http://405,0,,405,,,0,,
205220,,Karhuvuorenkatu 19 keskustaan,61.0416359,28.245263,1,http://405,0,,405,,,0,,
205221,,Karhuvuori,61.04778900000001,28.239633400000002,1,http://405,0,,405,,,0,,
205222,,Karhuvuorenkatu keskustaan,61.044139200000004,28.244213000000002,1,http://405,0,,405,,,0,,
205223,,Karhuvuorenkatu-Kaarelankatu keskustaan,61.040195100000005,28.229739700000003,1,http://405,0,,405,,,0,,
205224,,Karhuvuorenkatu-Pellavakatu keskustaan,61.04110480000001,28.236157700000003,1,http://405,0,,405,,,0,,
205225,,Karjalantie 2 keskustasta,61.06831340000001,28.253293000000003,1,http://405,0,,405,,,0,,
205226,,Karjalantie 7 keskustaan,61.06804590000001,28.2531272,1,http://405,0,,405,,,0,,
205227,,Karjalantie 25 keskustaan,61.070330600000005,28.260686900000003,1,http://405,0,,405,,,0,,
205228,,Karjalantie I,61.0699278,28.2687853,1,http://405,0,,405,,,0,,
205229,,Karjalantie 25 keskustasta,61.070454100000006,28.261776400000002,1,http://405,0,,405,,,0,,
205230,,Karjalantie L,61.0702057,28.268911900000003,1,http://405,0,,405,,,0,,
205231,,Kartanontie keskustasta,61.0756354,28.272335,1,http://405,0,,405,,,0,,
205232,,Kaukaankatu 19a keskustasta,61.064550800000006,28.227461800000004,1,http://405,0,,405,,,0,,
205233,,Kaukaankatu 20-22 keskustaan,61.06424210000001,28.225933800000004,1,http://405,0,,405,,,0,,
205234,,Kauppakatu 58-60 keskustaan,61.0533659,28.191868200000002,1,http://405,0,,405,,,0,,
205235,,Kauppakatu 67 keskustasta,61.05363140000001,28.190981900000004,1,http://405,0,,405,,,0,,
205236,,Kauppakatu 72 keskustaan,61.0511806,28.194714,1,http://405,0,,405,,,0,,
205237,,Kauppakatu 73 keskustasta,61.051059,28.194339400000004,1,http://405,0,,405,,,0,,
205238,,Kivisalmenkatu keskustaan,61.077016500000006,28.151971000000003,1,http://405,0,,405,,,0,,
205239,,Kivistönkatu,61.089974500000004,28.145702900000003,1,http://405,0,,405,,,0,,
205240,,Kivistönkatu 2 keskustasta,61.09003140000001,28.145330700000002,1,http://405,0,,405,,,0,,
205241,,Pilotinkatu I,61.039154800000006,28.1642532,1,http://405,0,,405,,,0,,
205242,,Pilotinkatu L,61.03911060000001,28.164726200000004,1,http://405,0,,405,,,0,,
205244,,Kornetinkatu 4 keskustasta,61.053712000000004,28.141946900000004,1,http://405,0,,405,,,0,,
205245,,Korpikunnaankatu 1 keskustasta,61.050498600000005,28.103524300000004,1,http://405,0,,405,,,0,,
205246,,Keskusta L,61.059251,28.1861904,1,http://405,0,,405,,,0,,
205247,,Keskusta I,61.0592346,28.1869723,1,http://405,0,,405,,,0,,
205249,,Armada,61.05903790000001,28.184685200000004,1,http://405,0,,405,,,0,,
205250,,Kurjentie 27 keskustaan,61.03537190000001,28.166154000000002,1,http://405,0,,405,,,0,,
205251,,Kurjentie 28 keskustasta,61.0351678,28.165787700000003,1,http://405,0,,405,,,0,,
205252,,Kurjentie 3 keskustaan,61.03768600000001,28.1687699,1,http://405,0,,405,,,0,,
205253,,Kurjentie 6 keskustasta,61.03708290000001,28.167775400000004,1,http://405,0,,405,,,0,,
205254,,Kurjentie 67 keskustaan,61.030677100000005,28.163014900000004,1,http://405,0,,405,,,0,,
205255,,Kurjentie 75 keskustaan,61.028165300000005,28.163297500000002,1,http://405,0,,405,,,0,,
205256,,Kuusimäenkatu 18 keskustaan,61.053563100000005,28.1519046,1,http://405,0,,405,,,0,,
205257,,Kuusimäenkatu 18 keskustasta,61.05369530000001,28.151749600000002,1,http://405,0,,405,,,0,,
205258,,Kärrinkatu keskustaan,61.04754930000001,28.205427000000004,1,http://405,0,,405,,,0,,
205259,,Kärrinkatu keskustasta,61.04769400000001,28.204630400000003,1,http://405,0,,405,,,0,,
205260,,Lappeenkatu E,61.058835900000005,28.195558400000003,1,http://405,0,,405,,,0,,
205261,,Lappeenkatu P,61.058708700000004,28.1960103,1,http://405,0,,405,,,0,,
205262,,Lauritsalantie-Kaukas keskustaan,61.06047360000001,28.243631000000004,1,http://405,0,,405,,,0,,
205263,,Lauritsalantie-Kaukas keskustasta,61.060429400000004,28.2408758,1,http://405,0,,405,,,0,,
205264,,Lauritsalantie I,61.0619682,28.235091300000004,1,http://405,0,,405,,,0,,
205265,,Lavolankatu 1 keskustaan,61.054065200000004,28.173045000000002,1,http://405,0,,405,,,0,,
205266,,Kesämäki I,61.0460216,28.177063900000004,1,http://405,0,,405,,,0,,
205267,,Lavolankatu-Leirikatu keskustasta,61.053986900000005,28.173415000000002,1,http://405,0,,405,,,0,,
205268,,Kesämäki P,61.047632500000006,28.1750107,1,http://405,0,,405,,,0,,
205270,,Lavolantie 14 P,61.044155200000006,28.105373500000002,1,http://405,0,,405,,,0,,
205272,,Lavolantie 30 P,61.039512,28.100164600000003,1,http://405,0,,405,,,0,,
205273,,Lavolantie 40 P,61.037797600000005,28.0983115,1,http://405,0,,405,,,0,,
205274,,Lentokentäntie 3 keskustaan,61.047886600000005,28.1737715,1,http://405,0,,405,,,0,,
205275,,Lentokentäntie 3 keskustasta,61.047655500000005,28.173418,1,http://405,0,,405,,,0,,
205276,,Lentokentäntie 7 keskustaan,61.0469597,28.1698942,1,http://405,0,,405,,,0,,
205277,,Lentokentäntie 7 keskustasta,61.046956300000005,28.169286300000003,1,http://405,0,,405,,,0,,
205279,,Lentokentäntie keskustasta,61.043911800000004,28.158391200000004,1,http://405,0,,405,,,0,,
205280,,Lentokentäntie-Kesämäenkatu keskustaan,61.045827900000006,28.164546400000003,1,http://405,0,,405,,,0,,
205281,,Lentokentäntie-Kesämäenkatu keskustasta,61.045908100000005,28.164424300000004,1,http://405,0,,405,,,0,,
205282,,Lepolankatu 10 keskustasta,61.05545790000001,28.208569500000003,1,http://405,0,,405,,,0,,
205283,,Lepolankatu 1a keskustaan,61.053952300000006,28.206832900000002,1,http://405,0,,405,,,0,,
205284,,Lepolankatu 34 keskustasta,61.059319,28.2137567,1,http://405,0,,405,,,0,,
205285,,Lepolankatu keskustaan,61.059315600000005,28.214032700000004,1,http://405,0,,405,,,0,,
205286,,Luukkaankatu 34 keskustaan,61.0758208,28.2647815,1,http://405,0,,405,,,0,,
205287,,Luukkaankatu 51 keskustasta,61.0757619,28.266065200000003,1,http://405,0,,405,,,0,,
205288,,Maininkikatu 12 keskustaan,61.0768332,28.160448900000002,1,http://405,0,,405,,,0,,
205289,,Maininkikatu 13 keskustasta,61.076599800000004,28.160435000000003,1,http://405,0,,405,,,0,,
205290,,Kariniemi,61.072646000000006,28.164262800000003,1,http://405,0,,405,,,0,,
205293,,Kurjentie 58 keskustasta,61.0307942,28.1628751,1,http://405,0,,405,,,0,,
205294,,Kaakkoiskaari 6 keskustaan,61.0500735,28.2234951,1,http://405,0,,405,,,0,,
205295,,Kaakkoiskaari 6 keskustasta,61.05035660000001,28.223926300000002,1,http://405,0,,405,,,0,,
205296,,Merenlahdentie 176 L,61.0499792,28.086154500000003,1,http://405,0,,405,,,0,,
205297,,Merenlahdentie 2 keskustaan,61.0458392,28.112839500000003,1,http://405,0,,405,,,0,,
205298,,Merenlahdentie 20 keskustaan,61.04562130000001,28.108009700000004,1,http://405,0,,405,,,0,,
205301,,Merenlahdentie 33 keskustasta,61.04572720000001,28.1068889,1,http://405,0,,405,,,0,,
205302,,Merenlahdentie 38 keskustaan,61.045696400000004,28.099776300000002,1,http://405,0,,405,,,0,,
205303,,Merenlahdentie 38 keskustasta,61.04582980000001,28.0999112,1,http://405,0,,405,,,0,,
205304,,Merenlahdentie 67 L,61.049123300000005,28.0929676,1,http://405,0,,405,,,0,,
205305,,Merenlahdentie-Helsingintie keskustasta,61.04584940000001,28.114087700000002,1,http://405,0,,405,,,0,,
205306,,Munteronkatu 2,61.05363010000001,28.064284400000002,1,http://405,0,,405,,,0,,
205307,,Mustolankatu 1 keskustasta,61.06919080000001,28.310487900000002,1,http://405,0,,405,,,0,,
205308,,Mutkakatu 11 keskustasta,61.054694100000006,28.188242300000002,1,http://405,0,,405,,,0,,
205309,,Muukontie 19 keskustasta,61.078864200000005,28.322831600000004,1,http://405,0,,405,,,0,,
205310,,Muukontie 22 keskustaan,61.07914720000001,28.323769700000003,1,http://405,0,,405,,,0,,
205311,,Kiiskinmäki,61.082102400000004,28.330727500000002,1,http://405,0,,405,,,0,,
205312,,Muukontie-Hakalinkatu keskustaan,61.075201500000006,28.275588700000004,1,http://405,0,,405,,,0,,
205313,,Muukontie-Hakalinkatu keskustasta,61.0745597,28.272869900000003,1,http://405,0,,405,,,0,,
205314,,Muukontie-Itäinen kanavatie keskustaan,61.0782407,28.3029435,1,http://405,0,,405,,,0,,
205315,,Muukontie-Itäinen kanavatie keskustasta,61.07795050000001,28.304456200000004,1,http://405,0,,405,,,0,,
205316,,Muukontie-Juusteninkatu keskustasta,61.07837930000001,28.318226700000004,1,http://405,0,,405,,,0,,
205317,,Muukontie-Kiilinkatu keskustaan,61.07853310000001,28.3172539,1,http://405,0,,405,,,0,,
205318,,Muukontie-Läntinen kanavatie keskustaan,61.077089300000004,28.2863423,1,http://405,0,,405,,,0,,
205319,,Muukontie-Läntinen kanavatie keskustasta,61.0772551,28.288174700000003,1,http://405,0,,405,,,0,,
205320,,Muukontie-Suolavuorentie keskustaan,61.07917440000001,28.297303600000003,1,http://405,0,,405,,,0,,
205321,,Muukontie-Suolavuorentie keskustasta,61.079065500000006,28.297625800000002,1,http://405,0,,405,,,0,,
205322,,Mäntylä,61.024730500000004,28.159721,1,http://405,0,,405,,,0,,
205323,,Mäntyläntie 4 keskustaan,61.025958800000005,28.1631594,1,http://405,0,,405,,,0,,
205324,,Oikokatu I,61.059844600000005,28.194923100000004,1,http://405,0,,405,,,0,,
205325,,Oikokatu L,61.0600694,28.194618600000002,1,http://405,0,,405,,,0,,
205326,,Onnelantie 10 keskustaan,61.0508633,28.230056,1,http://405,0,,405,,,0,,
205328,,Onnelantie 21 keskustasta,61.05198970000001,28.237097900000002,1,http://405,0,,405,,,0,,
205329,,Onnelantie 24 keskustaan,61.0516829,28.234101600000002,1,http://405,0,,405,,,0,,
205330,,Onnelantie 3 keskustasta,61.050883500000005,28.2305661,1,http://405,0,,405,,,0,,
205332,,Onnelantie 36 keskustaan,61.052585400000005,28.239629600000004,1,http://405,0,,405,,,0,,
205333,,Onninkatu 19 keskustaan,61.055642000000006,28.239117600000004,1,http://405,0,,405,,,0,,
205334,,Onninkatu 2 keskustaan,61.05807300000001,28.236877000000003,1,http://405,0,,405,,,0,,
205335,,Onninkatu keskustasta,61.0538894,28.241856600000002,1,http://405,0,,405,,,0,,
205336,,Onninkatu-Tierankuja keskustasta,61.05566830000001,28.239373000000004,1,http://405,0,,405,,,0,,
205337,,Orioninkatu 1 keskustaan,61.052282700000006,28.1054378,1,http://405,0,,405,,,0,,
205338,,Orioninkatu 1 keskustasta,61.05253510000001,28.1053023,1,http://405,0,,405,,,0,,
205339,,Orioninkatu 13 keskustasta,61.054119500000006,28.101562500000004,1,http://405,0,,405,,,0,,
205340,,Orioninkatu 8 keskustaan,61.05345200000001,28.102657200000003,1,http://405,0,,405,,,0,,
205341,,Orioninkatu-Kaivosuonkatu keskustaan,61.05469670000001,28.0953665,1,http://405,0,,405,,,0,,
205342,,Orioninkatu-Kaivosuonkatu keskustasta,61.054839400000006,28.095175400000002,1,http://405,0,,405,,,0,,
205343,,Hovinpelto,61.073194900000004,28.2986569,1,http://405,0,,405,,,0,,
205344,,Piiluvankatu 18 keskustaan,61.0902669,28.1502161,1,http://405,0,,405,,,0,,
205345,,Piiluvankatu 25 keskustasta,61.09027220000001,28.150672200000002,1,http://405,0,,405,,,0,,
205346,,Piiluvankatu-Kivisalmenkatu keskustaan,61.0872188,28.151135600000003,1,http://405,0,,405,,,0,,
205347,,Piiluvankatu-Kivisalmenkatu keskustasta,61.0872212,28.151332800000002,1,http://405,0,,405,,,0,,
205348,,Piiluvankatu-Voisalmentie keskustasta,61.0845509,28.147734900000003,1,http://405,0,,405,,,0,,
205349,,Pikisaarenkatu 27 keskustasta,61.0695114,28.1777848,1,http://405,0,,405,,,0,,
205350,,Pikisaarenkatu 31 keskustasta,61.070665700000006,28.174759200000004,1,http://405,0,,405,,,0,,
205351,,Pikisaarenkatu 32 keskustaan,61.069947000000006,28.175435600000004,1,http://405,0,,405,,,0,,
205353,,Pikisaari,61.073075100000004,28.174020600000002,1,http://405,0,,405,,,0,,
205354,,Pilotinkatu P,61.042518400000006,28.159002500000003,1,http://405,0,,405,,,0,,
205355,,Pilotinkatu E,61.042644200000005,28.158132300000002,1,http://405,0,,405,,,0,,
205356,,Pitkäkatu 2 keskustasta,61.0681864,28.312796000000002,1,http://405,0,,405,,,0,,
205357,,Pitkäkatu 20 keskustasta,61.0678155,28.3191023,1,http://405,0,,405,,,0,,
205358,,Mustola,61.0637977,28.321219900000003,1,http://405,0,,405,,,0,,
205359,,Puhakankatu 13 keskustaan,61.0525408,28.180056300000004,1,http://405,0,,405,,,0,,
205360,,Puhakankatu 3-7 keskustaan,61.05117990000001,28.1785214,1,http://405,0,,405,,,0,,
205361,,Puhakankatu 3-7 keskustasta,61.0509471,28.177119200000003,1,http://405,0,,405,,,0,,
205362,,Ratakatu 18 keskustasta,61.04781500000001,28.1916854,1,http://405,0,,405,,,0,,
205363,,Matkakeskus,61.0487005,28.194773,1,http://405,0,,405,,,0,,
205364,,Ratakatu keskustaan,61.051535400000006,28.201743200000003,1,http://405,0,,405,,,0,,
205365,,Ratakatu keskustasta,61.0517194,28.201781500000003,1,http://405,0,,405,,,0,,
205366,,Mäntyläntie 10 keskustasta,61.024975000000005,28.1599241,1,http://405,0,,405,,,0,,
205367,,Mäntyläntie 4 keskustasta,61.02598150000001,28.162867600000002,1,http://405,0,,405,,,0,,
205368,,Ruoholampi,61.05213930000001,28.066802600000003,1,http://405,0,,405,,,0,,
205369,,Selkäharjunkatu I,61.03053980000001,28.0591006,1,http://405,0,,405,,,0,,
205372,,Selkäharjunkatu L,61.03089560000001,28.058329000000004,1,http://405,0,,405,,,0,,
205373,,Sammonlahdenkatu-Kiertokatu keskustaan,61.049283300000006,28.0987028,1,http://405,0,,405,,,0,,
205374,,Sammonlahdenkatu-Kiertokatu keskustasta,61.0495317,28.0997556,1,http://405,0,,405,,,0,,
205375,,Sammonlahdenkatu-Merenlahdentie keskustaan,61.04802550000001,28.095986500000002,1,http://405,0,,405,,,0,,
205376,,Sammonlahdenkatu-Merenlahdentie keskustasta,61.0479776,28.0964035,1,http://405,0,,405,,,0,,
205377,,Sammonlahdenkatu-Orioninkatu keskustasta,61.05219580000001,28.106985200000004,1,http://405,0,,405,,,0,,
205379,,Saratie 13 keskustasta,61.084511600000006,28.1434351,1,http://405,0,,405,,,0,,
205380,,Saratie 7 keskustasta,61.08318080000001,28.145411600000003,1,http://405,0,,405,,,0,,
205381,,Satamatie 30 itään,61.064760400000004,28.172366600000004,1,http://405,0,,405,,,0,,
205382,,Satamatie 30 länteen,61.0648977,28.174827200000003,1,http://405,0,,405,,,0,,
205383,,Skinnarilankatu 11 keskustasta,61.0548233,28.108029000000002,1,http://405,0,,405,,,0,,
205384,,Skinnarilankatu 14 keskustaan,61.0582331,28.104655,1,http://405,0,,405,,,0,,
205385,,Skinnarilankatu 14 keskustasta,61.05836660000001,28.104952800000003,1,http://405,0,,405,,,0,,
205386,,Skinnarilankatu 20 keskustaan,61.060027600000005,28.103291900000002,1,http://405,0,,405,,,0,,
205387,,Skinnarilankatu 20 keskustasta,61.0607838,28.103576900000004,1,http://405,0,,405,,,0,,
205388,,Skinnarilankatu 24 keskustaan,61.06299370000001,28.1012714,1,http://405,0,,405,,,0,,
205389,,Skinnarilankatu 29 keskustasta,61.0638227,28.0999279,1,http://405,0,,405,,,0,,
205390,,LUT-Yliopisto,61.0649409,28.095984700000002,1,http://405,0,,405,,,0,,
205391,,Skinnarilankatu 6 keskustaan,61.05435860000001,28.107759800000004,1,http://405,0,,405,,,0,,
205392,,Skinnarilankatu keskustaan,61.04684960000001,28.115931900000003,1,http://405,0,,405,,,0,,
205393,,Skinnarilankatu keskustasta,61.047060900000005,28.116059000000003,1,http://405,0,,405,,,0,,
205394,,Skinnarilankatu-Rantaniitynkatu keskustaan,61.05017970000001,28.112726300000002,1,http://405,0,,405,,,0,,
205395,,Skinnarilankatu-Rantaniitynkatu keskustasta,61.051705600000005,28.110909100000004,1,http://405,0,,405,,,0,,
205396,,Snellmaninkatu 2 keskustasta,61.058913800000006,28.182232900000002,1,http://405,0,,405,,,0,,
205397,,Standertskjöldinkatu 1 keskustasta,61.06486,28.231159200000004,1,http://405,0,,405,,,0,,
205398,,Standertskjöldinkatu 10 keskustaan,61.060264200000006,28.2348269,1,http://405,0,,405,,,0,,
205399,,Standertskjöldinkatu 2 keskustaan,61.0631977,28.233291800000003,1,http://405,0,,405,,,0,,
205400,,Standertskjöldinkatu 1 keskustaan,61.065079100000005,28.2314013,1,http://405,0,,405,,,0,,
205401,,Suolavuorentie 12 keskustaan,61.0820671,28.287742200000004,1,http://405,0,,405,,,0,,
205402,,Suolavuorentie 15 keskustasta,61.08221770000001,28.288085900000002,1,http://405,0,,405,,,0,,
205403,,Kanavansuu,61.08163460000001,28.275320500000003,1,http://405,0,,405,,,0,,
205404,,Suolavuorentie 6 keskustaan,61.08133230000001,28.294353100000002,1,http://405,0,,405,,,0,,
205405,,Suolavuorentie 6 keskustasta,61.081167300000004,28.295225100000003,1,http://405,0,,405,,,0,,
205406,,Suolavuorentie-Sahurinkatu keskustasta,61.0812639,28.283238200000003,1,http://405,0,,405,,,0,,
205407,,Suolavuorentie-Särmääjänkatu keskustaan,61.081368600000005,28.284343200000002,1,http://405,0,,405,,,0,,
205408,,Suonionkatu 12 keskustaan,61.056112500000005,28.179096100000002,1,http://405,0,,405,,,0,,
205409,,Suonionkatu 25 keskustasta,61.052547800000006,28.1798311,1,http://405,0,,405,,,0,,
205410,,Suonionkatu 9,61.056470700000006,28.178752600000003,1,http://405,0,,405,,,0,,
205411,,Taipalsaarentie 16 keskustaan,61.063234400000006,28.175385600000002,1,http://405,0,,405,,,0,,
205412,,Taipalsaarentie 16 keskustasta,61.0630998,28.176861900000002,1,http://405,0,,405,,,0,,
205413,,Pusupuisto L,61.06217780000001,28.181240700000004,1,http://405,0,,405,,,0,,
205414,,Taipalsaarentie 51 keskustasta,61.0649354,28.164908300000004,1,http://405,0,,405,,,0,,
205415,,Pusupuisto I,61.0623749,28.179470900000002,1,http://405,0,,405,,,0,,
205416,,Taipalsaarentie-Tyysterniementie,61.06478680000001,28.163899800000003,1,http://405,0,,405,,,0,,
205417,,Teekkarikatu keskustaan,61.058476000000006,28.092273000000002,1,http://405,0,,405,,,0,,
205418,,Teekkarikatu keskustasta,61.05851080000001,28.092489300000004,1,http://405,0,,405,,,0,,
205419,,Teknologiapuistonkatu 1 keskustaan,61.063070100000004,28.099680700000004,1,http://405,0,,405,,,0,,
205420,,Teknologiapuistonkatu 1 keskustasta,61.063058500000004,28.100072500000003,1,http://405,0,,405,,,0,,
205421,,Teknologiapuistonkatu 3 keskustaan,61.061248000000006,28.095934200000002,1,http://405,0,,405,,,0,,
205422,,Teknologiapuistonkatu 3 keskustasta,61.06126390000001,28.097954500000004,1,http://405,0,,405,,,0,,
205423,,Tilsalankatu 25-27 E,61.045971800000004,28.075223100000002,1,http://405,0,,405,,,0,,
205424,,Tilsalankatu-Pakkikatu E,61.049835900000005,28.074382900000003,1,http://405,0,,405,,,0,,
205425,,Tilsalankatu-Vanhapellonkatu E,61.04210580000001,28.075679500000003,1,http://405,0,,405,,,0,,
205426,,Tyysterniementie 11 keskustaan,61.067873000000006,28.1564474,1,http://405,0,,405,,,0,,
205427,,Tyysterniementie 3 keskustasta,61.06567140000001,28.1596453,1,http://405,0,,405,,,0,,
205428,,Tyysterniementie 11 keskustasta,61.068004900000005,28.156645200000003,1,http://405,0,,405,,,0,,
205429,,Tyysterniementie keskustaan,61.065361200000005,28.159954100000004,1,http://405,0,,405,,,0,,
205430,,Tyysterniementie-Tyysterniemenranta keskustaan,61.0717653,28.151750800000002,1,http://405,0,,405,,,0,,
205431,,Tyysterniementie-Tyysterniemenranta keskustasta,61.07198890000001,28.151802000000004,1,http://405,0,,405,,,0,,
205441,,Lyseo I,61.057604000000005,28.180632600000003,1,http://405,0,,405,,,0,,
205442,,Lyseo L,61.057717800000006,28.180236200000003,1,http://405,0,,405,,,0,,
205443,,Valtakatu 70 keskustasta,61.060263400000004,28.202618100000002,1,http://405,0,,405,,,0,,
205444,,Valtakatu 72 keskustaan,61.06042670000001,28.2018586,1,http://405,0,,405,,,0,,
205445,,Arboretum L,61.061582300000005,28.2136123,1,http://405,0,,405,,,0,,
205446,,Arboretum I,61.06130530000001,28.2135059,1,http://405,0,,405,,,0,,
205457,,Voisalmentie 14 keskustaan,61.084013500000005,28.147047800000003,1,http://405,0,,405,,,0,,
205458,,Voisalmentie 19 keskustasta,61.0813392,28.148821700000003,1,http://405,0,,405,,,0,,
205459,,Voisalmentie 25 keskustasta,61.083820300000006,28.147483800000003,1,http://405,0,,405,,,0,,
205460,,Voisalmentie 4 keskustaan,61.07725140000001,28.150188500000002,1,http://405,0,,405,,,0,,
205461,,Voisalmentie 8 keskustaan,61.080317900000004,28.148848,1,http://405,0,,405,,,0,,
205462,,Voisalmentie-Kivisalmenkatu keskustasta,61.076530000000005,28.1509101,1,http://405,0,,405,,,0,,
205463,,Yhteistyönkatu 3 keskustaan,61.06664500000001,28.2564424,1,http://405,0,,405,,,0,,
205464,,Yhteistyönkatu 3 keskustasta,61.066917800000006,28.256398500000003,1,http://405,0,,405,,,0,,
230515,,Nuijamaantie 555,61.03419890000001,28.3686745,2,http://405,0,,405,,,0,,
230589,,Rummuntie 409,60.837071800000004,28.188161100000002,3,http://405,0,,405,,,0,,
230598,,Pajarilantie 397,61.047152000000004,28.319010900000002,2,http://405,0,,405,,,0,,
230600,,Utrasaarentie 46,61.084043900000005,28.332987300000003,1,http://405,0,,405,,,0,,
230601,,Kaarnantie 347,61.0084049,28.4573226,2,http://405,0,,405,,,0,,
230602,,Kaarnantie 352,61.008638100000006,28.4579486,2,http://405,0,,405,,,0,,
230603,,Kaarnantie 480,61.008487800000005,28.478093400000002,2,http://405,0,,405,,,0,,
230604,,Kaarnantie 483,61.008278100000005,28.478701,2,http://405,0,,405,,,0,,
230605,,Ilottulantie 26,61.08798360000001,28.347327800000002,2,http://405,0,,405,,,0,,
230606,,Konnuntie 636,60.98805960000001,28.6733505,2,http://405,0,,405,,,0,,
230607,,Rantatie 796,61.152371900000006,28.613227300000002,2,http://405,0,,405,,,0,,
230608,,Rantatie 805,61.15138290000001,28.613636000000003,2,http://405,0,,405,,,0,,
230609,,Aholantie 844,61.138648800000006,28.738694600000002,2,http://405,0,,405,,,0,,
231383,,Ylämaantie 2158,60.86369800000001,27.9804613,3,http://405,0,,405,,,0,,
231384,,Ylämaantie 2386,60.845246200000005,27.986761700000002,3,http://405,0,,405,,,0,,
231385,,Ylämaantie 2817,60.815008000000006,28.009511000000003,3,http://405,0,,405,,,0,,
231386,,Ylämaantie 2823,60.814553100000005,28.009291400000002,3,http://405,0,,405,,,0,,
231388,,Ylämaantie 2901,60.809040800000005,28.002368200000003,3,http://405,0,,405,,,0,,
231389,,Ylämaantie 2964,60.80396710000001,28.003285100000003,3,http://405,0,,405,,,0,,
231390,,Vaalimaantie 137,61.03110830000001,28.1658812,1,http://405,0,,405,,,0,,
231391,,Vaalimaantie 141,61.0296596,28.165607400000003,1,http://405,0,,405,,,0,,
231392,,Vaalimaantie 776,60.974784500000005,28.1599016,2,http://405,0,,405,,,0,,
231393,,Rikkiläntie 1303,60.91145590000001,28.135890500000002,2,http://405,0,,405,,,0,,
231394,,Rikkiläntie 1296,60.9112597,28.137370100000002,2,http://405,0,,405,,,0,,
231395,,Ruohiantie 270,60.95821670000001,28.199665900000003,2,http://405,0,,405,,,0,,
231396,,Ruohiantie 21,60.96169880000001,28.156727300000004,2,http://405,0,,405,,,0,,
231397,,Ruohiantie 16,60.96206310000001,28.1558692,2,http://405,0,,405,,,0,,
231398,,Rajatie 95,60.960869800000005,28.515214900000004,2,http://405,0,,405,,,0,,
231400,,Penttiläntie 1072,61.04492880000001,28.597646400000002,2,http://405,0,,405,,,0,,
231401,,Saimaantie 25,61.125188200000004,28.497098100000002,2,http://405,0,,405,,,0,,
231407,,Imatranväylä 12,61.17236020000001,28.703833600000003,2,http://405,0,,405,,,0,,
231690,,Kuutonen 1209,61.14901830000001,28.613490400000003,2,http://405,0,,405,,,0,,
231698,,Kuutonen 1228,61.14984510000001,28.6159272,2,http://405,0,,405,,,0,,
300324,,Viipurintie-Toikansuontie keskustaan,61.047223,28.201139200000004,1,http://405,0,,405,,,0,,
300397,,Joutseno linja-autoasema,61.1185327,28.503409700000002,2,http://405,0,,405,,,0,,
300446,,Lampikangas vt 6 L,61.11047670000001,28.4525031,2,http://405,0,,405,,,0,,
300460,,Rauhantie 36,61.175834900000005,28.689719600000004,2,http://405,0,,405,,,0,,
300462,,Rauhantie 36,61.17606980000001,28.689734800000004,2,http://405,0,,405,,,0,,
300516,,Kiiskinmäki P  Muukontie 57,61.0827103,28.332030900000003,1,http://405,0,,405,,,0,,
300740,,Korvenkangas L (Korvenkylä),61.1661117,28.677206200000004,2,http://405,0,,405,,,0,,
300741,,Rauhantie 2,61.166673,28.6786026,2,http://405,0,,405,,,0,,
300865,,Kanalammentie 339,60.929872800000005,28.098575300000004,2,http://405,0,,405,,,0,,
300885,,Rikkilä,60.8913549,28.214861700000004,2,http://405,0,,405,,,0,,
300897,,Tiuru,61.194869700000005,28.673857500000004,2,http://405,0,,405,,,0,,
301465,,Imatran kaupungintalo E,61.19153670000001,28.776387000000003,4,http://153,0,,153,,,0,,
301466,,Vuoksenrannankatu 27,61.173599,28.770730300000004,4,http://153,0,,153,,,0,,
301467,,Vuoksenrannankatu 28,61.173903300000006,28.771425200000003,4,http://153,0,,153,,,0,,
301470,,Vuoksenrannankatu 7,61.17977030000001,28.771548600000003,4,http://153,0,,153,,,0,,
304607,,Ylijärvi,60.7706536,27.936796800000003,3,http://405,0,,405,,,0,,
306129,,Viipurintie keskustasta,61.046230400000006,28.202734300000003,1,http://405,0,,405,,,0,,
306975,,Vuoksenniska Imatra P,61.22436940000001,28.834517800000004,4,http://153,0,,153,,,0,,
306976,,Vuoksenniska Imatra E,61.2242073,28.833968400000003,4,http://153,0,,153,,,0,,
307575,,Lentokentäntie,61.04400100000001,28.159647200000002,1,http://405,0,,405,,,0,,
307577,,Ajurinkatu keskustasta,61.0433669,28.2223849,1,http://405,0,,405,,,0,,
308248,,Jäähalli P,61.2003775,28.7397172,4,http://153,0,,153,,,0,,
308262,,Keskuskatu-Karhumäenkatu,61.18702,28.762932,4,http://153,0,,153,,,0,,
308290,,Lammassaarentie 2,61.19658,28.74541,4,http://153,0,,153,,,0,,
308295,,Ukonlinna,61.205386700000005,28.732950300000002,4,http://153,0,,153,,,0,,
308297,,Lappeentie 25,61.171585,28.761686,4,http://153,0,,153,,,0,,
308362,,Räikköläntie 252,61.108128,28.808556,4,http://153,0,,153,,,0,,
308363,,Räikköläntie 360,61.114911600000006,28.802888300000003,4,http://153,0,,153,,,0,,
308364,,Räikköläntie 433,61.119209600000005,28.793709800000002,4,http://153,0,,153,,,0,,
308403,,Vallinkoskentie 29,61.150270000000006,28.766758000000003,4,http://153,0,,153,,,0,,
308405,,Vallinkoskentie 165,61.1449246,28.776974400000004,4,http://153,0,,153,,,0,,
308406,,Vallinkoskentie 277,61.135954000000005,28.785507300000003,4,http://153,0,,153,,,0,,
308407,,Vallinkoskentie 333,61.131409600000005,28.786113600000004,4,http://153,0,,153,,,0,,
308425,,Viipurintie 431,61.1350953,28.7495569,4,http://153,0,,153,,,0,,
308426,,Viipurintie 520,61.1284879,28.757020500000003,4,http://153,0,,153,,,0,,
308427,,Viipurintie 593,61.122411500000005,28.758506900000004,4,http://153,0,,153,,,0,,
308429,,Viipurintie 754,61.1087228,28.766728900000004,4,http://153,0,,153,,,0,,
308448,,Vuoksenrannankatu 7,61.180040500000004,28.7716154,4,http://153,0,,153,,,0,,
308492,,Harapaisentie 25 E,61.05200730000001,28.211269700000003,1,http://405,0,,405,,,0,,
308493,,Harapaisentie 9 E,61.049851800000006,28.207658300000002,1,http://405,0,,405,,,0,,
308495,,Viipurintie-Ajurinkatu keskustaan,61.0426805,28.218990200000004,1,http://405,0,,405,,,0,,
308496,,Viipurintie-Ajurinkatu keskustasta,61.0425139,28.218576600000002,1,http://405,0,,405,,,0,,
308497,,Merenlahdentie 217 keskustasta,61.0528923,28.0791198,1,http://405,0,,405,,,0,,
308768,,Transpoint E,61.0411312,28.107104800000002,1,http://405,0,,45,,,0,,
308769,,Ravirata E,61.037278900000004,28.099307900000003,1,http://405,0,,405,,,0,,
308772,,Ravirata P,61.037595800000005,28.1007874,1,http://405,0,,405,,,0,,
308773,,Transpoint P,61.040820800000006,28.106910700000004,1,http://405,0,,405,,,0,,
309088,,VP-Kuljetus I,61.16271030000001,28.656501000000002,2,http://405,0,,405,,,0,,
309089,,VP-Kuljetus L,61.162605400000004,28.654657900000004,2,http://405,0,,405,,,0,,
309090,,Portsilta I,61.172893,28.7337315,4,http://153,0,,153,,,0,,
309091,,Vesivalo th L,61.17248250000001,28.703394400000004,2,http://405,0,,405,,,0,,
309269,,Imatran keskusliikenneasema I,61.195913000000004,28.777325800000003,4,http://153,0,,153,,,0,,
309519,,Imatrantie-Kaukaankatu keskustasta,61.0628218,28.217991500000004,1,http://405,0,,405,,,0,,
309670,,Konnunsuo VOK 1,61.0300707,28.5497264,2,http://405,0,,405,,,0,,
309671,,Kivisaari 1,61.029823900000004,28.466904300000003,2,http://405,0,,405,,,0,,
309678,,Kotasaarentie 2,61.053867800000006,28.4787913,2,http://405,0,,405,,,0,,
309679,,Kotasaarentie 1,61.05389830000001,28.478997500000002,2,http://405,0,,405,,,0,,
309680,,Konnunsuo 2,61.029994300000006,28.5495702,2,http://405,0,,405,,,0,,
309681,,Kivisaari 2,61.029740800000006,28.466729100000002,2,http://405,0,,405,,,0,,
309682,,Partalantie  Kähärilän th 1,61.06208650000001,28.487025300000003,2,http://405,0,,405,,,0,,
309684,,Haukilahti  Rantasen varikko_1,61.1256653745846,28.4128063383468,2,http://405,0,,405,,,0,,
309687,,Leppälä  Suokumaantie th 2,61.041222600000005,28.6143095,2,http://405,0,,405,,,0,,
309689,,Suokumaa  Lipiäläntie th 2,61.0545303,28.6474301,2,http://405,0,,405,,,0,,
309693,,Pienpällinkatu keskustaan,61.073130600000006,28.298161500000003,1,http://405,0,,405,,,0,,
309694,,Isopällinkatu keskustaan,61.072129100000005,28.294607900000003,1,http://405,0,,405,,,0,,
309695,,Itäinen kanavatie keskustaan,61.06868010000001,28.309975800000004,1,http://405,0,,405,,,0,,
309696,,Suokumaantie 471 1,61.06751560000001,28.698400000000003,2,http://405,0,,405,,,0,,
309699,,Kuurmanpohjan koulu 2,61.08017950000001,28.717098200000002,2,http://405,0,,405,,,0,,
309701,,Kuurmanpohja 2,61.0704550408148,28.7489203188703,2,http://405,0,,405,,,0,,
309703,,Vesala 2,61.0883351,28.6777535,2,http://405,0,,405,,,0,,
309705,,Vesikkola 2,61.1028845,28.637696100000003,2,http://405,0,,405,,,0,,
309706,,Perä-Ahola 1,61.1096501,28.697962300000004,2,http://405,0,,405,,,0,,
309709,,Ahola  Salontien th 2,61.124777200000004,28.695581100000002,2,http://405,0,,405,,,0,,
309710,,Pienmäentie risteys 1,61.0743415,28.349553900000004,2,http://405,0,,405,,,0,,
309712,,Mentulantie 1,61.075682300000004,28.355296600000003,2,http://405,0,,405,,,0,,
309713,,Mentulantie 2,61.0757466,28.355356800000003,2,http://405,0,,405,,,0,,
309714,,Räätälintien risteys 1,61.0724603,28.373544100000004,2,http://405,0,,405,,,0,,
309715,,Räätälintien risteys 2,61.072527400000006,28.373599000000002,2,http://405,0,,405,,,0,,
309716,,Soskuantien risteys 1,61.07202600000001,28.376716000000002,2,http://405,0,,405,,,0,,
309717,,Soskuantien risteys 2,61.072093300000006,28.376659600000004,2,http://405,0,,405,,,0,,
309718,,Hiekkastentien risteys 1,61.07380870000001,28.385791,2,http://405,0,,405,,,0,,
309722,,Tuohimäentien risteys 2,61.05422970000001,28.380066900000003,2,http://405,0,,405,,,0,,
309723,,Korkea-ahontie 892 1,60.961998900000005,28.0842418,2,http://405,0,,405,,,0,,
309725,,Korkea-ahontie 1190 1,60.9384366,28.067436700000002,2,http://405,0,,405,,,0,,
309726,,Korkea-ahontie 1190 2,60.93840350000001,28.067331100000004,2,http://405,0,,405,,,0,,
309727,,Tanin lähtöpysäkki_1,60.9230512,28.0360058,2,http://405,0,,405,,,0,,
309729,,Kukkola 1,61.035639,27.9792449,2,http://405,0,,405,,,0,,
309730,,Kukkola 2,61.0356317,27.978989700000003,2,http://405,0,,405,,,0,,
309732,,Murtola 2,61.032202500000004,27.963175300000003,2,http://405,0,,405,,,0,,
309733,,Kosenmäki 1,61.02593040000001,27.938878300000002,2,http://405,0,,405,,,0,,
309765,,Melkkola_1,60.933959900000005,28.1147184,2,http://405,0,,405,,,0,,
309766,,Melkkola_2,60.93399180000001,28.114585400000003,2,http://405,0,,405,,,0,,
309767,,Korkea-aho 1,60.98376830000001,28.091690900000003,2,http://405,0,,405,,,0,,
309768,,Korkea-aho 2,60.983704200000005,28.091407200000003,2,http://405,0,,405,,,0,,
309770,,Ravattila 2,61.067567600000004,28.5414786,2,http://405,0,,405,,,0,,
309777,,Vanha Mikkelintie 10 keskustasta,61.033152900000005,28.053979800000004,1,http://405,0,,405,,,0,,
309778,,Vanha Mikkelintie 10 keskustaan,61.033387700000006,28.0529262,1,http://405,0,,405,,,0,,
309779,,Vanha Rutolantie 90 keskustasta,61.03694060000001,28.044221200000003,1,http://405,0,,405,,,0,,
309780,,Vanha Mikkelintie 90 keskustaan,61.03709320000001,28.043429600000003,1,http://405,0,,405,,,0,,
309781,,Vanha Mikkelintie 125 keskustasta,61.0386274,28.040323500000003,1,http://405,0,,405,,,0,,
309782,,Vanha Mikkelintie 125 keskustaan,61.038848300000005,28.039414500000003,1,http://405,0,,405,,,0,,
309952,,Asentajantie Joutsenoon,61.115337200000006,28.484547100000004,2,http://405,0,,405,,,0,,
309953,,Keskuskatu/Annukantie Joutsenoon,61.115825900000004,28.489356200000003,2,http://405,0,,405,,,0,,
309954,,Keskuskatu/Annukantie Joutsenosta,61.115945800000006,28.489336100000003,2,http://405,0,,405,,,0,,
309955,,Keskuskatu 12 Joutsenoon,61.1170387,28.4977845,2,http://405,0,,405,,,0,,
309956,,Keskuskatu 12 Joutsenosta,61.1172577,28.4981794,2,http://405,0,,405,,,0,,
309957,,Teollisuustie/Lappeenkatu,61.11186970000001,28.488746000000003,2,http://405,0,,405,,,0,,
309964,,Simolantie_keskustasta,61.043965500000006,28.178236000000002,1,http://405,0,,405,,,0,,
309965,,Pulsa,60.92686210000001,27.977038800000003,2,http://405,0,,405,,,0,,
310014,,Vainikkala RAS,60.863083,28.3042869,2,http://405,0,,405,,,0,,
310107,,Simolantie keskustaan,61.044290800000006,28.1789042,1,http://405,0,,405,,,0,,
310200,,Asemansuora,61.1179946,28.483157300000002,2,http://405,0,,405,,,0,,
310681,,Jäähalli,61.058423100000006,28.2270782,1,http://405,0,,405,,,0,,
310698,,Sarvijoentie 72,60.909514300000005,28.119512600000004,2,http://405,0,,405,,,0,,
310699,,Haikalantie 194,60.9144956,28.098624100000002,2,http://405,0,,405,,,0,,
310700,,Haikala_2,60.929937900000006,28.0987134,2,http://405,0,,405,,,0,,
310702,,Villala,60.8084253,28.173748200000002,3,http://405,0,,405,,,0,,
310703,,Hyttilä,60.8107138,28.0942773,3,http://405,0,,405,,,0,,
310715,,Kaipiantie/Ruohiantie,60.9092988,28.253978600000003,2,http://405,0,,405,,,0,,
310716,,Marttila,61.0094502,28.621278200000003,2,http://405,0,,405,,,0,,
310823,,Lavolantie 2 E,61.045350600000006,28.1073206,1,http://405,0,,405,,,0,,
310824,,Lavolantie 14 E,61.04424470000001,28.1051612,1,http://405,0,,405,,,0,,
313603,,Onninkatu 27 keskustaan,61.0529634,28.242566300000004,1,http://405,0,,405,,,0,,
313604,,Onninkatu 27 keskustasta,61.053087500000004,28.242725800000002,1,http://405,0,,405,,,0,,
313605,,Eteläkatu/Onninkatu keskustaan,61.050261500000005,28.245653500000003,1,http://405,0,,405,,,0,,
313606,,Eteläkatu/Onninkatu keskustasta,61.050165500000006,28.246146500000002,1,http://405,0,,405,,,0,,
314105,,Karhuvuorenkatu 20 keskustasta,61.042123100000005,28.246393500000003,1,http://405,0,,405,,,0,,
314106,,Karhuvuorenkatu keskustasta,61.044654400000006,28.244093400000004,1,http://405,0,,405,,,0,,
314107,,Karhuvuorenkatu 17 keskustasta,61.046322,28.243774600000002,1,http://405,0,,405,,,0,,
314108,,Karhuvuori keskustasta,61.047990000000006,28.2395625,1,http://405,0,,405,,,0,,
314203,,Kaarelankatu keskustasta,61.040277200000006,28.230208500000003,1,http://405,0,,405,,,0,,
314204,,Pellavakatu_keskustasta,61.040898500000004,28.236641700000003,1,http://405,0,,405,,,0,,
314700,,Pontuksen koulu I,61.078546200000005,28.311102800000004,1,http://405,0,,405,,,0,,
314701,,Pontuksen koulu L,61.078473,28.309281900000002,1,http://405,0,,405,,,0,,
314702,,Savikannantie 3,61.16597110000001,28.7983797,4,http://153,0,,153,,,0,,
314705,,Perä-Meltola,61.142984600000005,28.744466000000003,4,http://153,0,,153,,,0,,
314708,,Hietalankatu 3,61.0560114,28.195750000000004,1,http://405,0,,405,,,0,,
314709,,Hietalankatu 21,61.053930400000006,28.203781600000003,1,http://405,0,,405,,,0,,
314723,,Mellonmäki,61.16342170000001,28.752822300000002,4,http://153,0,,153,,,0,,
314724,,Liisanpuisto,61.1679686,28.746064800000003,4,http://153,0,,153,,,0,,
314802,,Savikannantie 199,61.17829630000001,28.813613300000004,4,http://153,0,,153,,,0,,
314803,,Savikannantie 3,61.16620950000001,28.7987095,4,http://153,0,,153,,,0,,
314807,,Joutsenonkatu 71,61.1969374,28.747359100000004,4,http://153,0,,153,,,0,,
314811,,Vallinkoskentie 111,61.147874300000005,28.7703975,4,http://153,0,,153,,,0,,
314920,,Meltolantie 1,61.161900900000006,28.756698300000004,4,http://153,0,,153,,,0,,
314921,,Mellonmäki,61.1641436,28.751807600000003,4,http://153,0,,153,,,0,,
314923,,Keskuskatu-Linnalankatu P,61.18810990000001,28.7692568,4,http://153,0,,153,,,0,,
315000,,Keskuskatu-Linnalankatu E,61.1883411,28.769101000000003,4,http://153,0,,153,,,0,,
315226,,Lammassaarentie 12 E,61.2022977,28.735379000000002,4,http://153,0,,153,,,0,,
315227,,Lammassaarentie 12 P,61.202485800000005,28.735536900000003,4,http://153,0,,153,,,0,,
319720,,Voisalmentie-Kivirannankatu,61.08789050000001,28.143880100000004,1,http://405,0,,405,,,0,,
323623,,Helsingintie-Suonionkatu keskustaan,61.05509500000001,28.180176400000004,1,,0,,405,,,0,,
327418,,Rutola,61.04193860000001,28.033964200000003,1,http://405,0,,405,,,0,,
328220,,Lavolantie 55 E,61.0367827,28.095973900000004,1,http://405,0,,405,,,0,,
328222,,Tilsalankatu-Patterikatu P,61.04724420000001,28.0761226,1,http://405,0,,405,,,0,,
328223,,Tilsalankatu-Pakkikatu P,61.050137500000005,28.074671900000002,1,http://405,0,,405,,,0,,
328316,,Tilsalankatu-Kiviesteenkatu P,61.040878600000006,28.076372400000004,1,http://405,0,,405,,,0,,
329520,,Lavolantie 30 E,61.041253600000005,28.101055600000002,1,http://405,0,,405,,,0,,
336017,,Keskusasema P,61.195655,28.776019100000003,4,http://153,0,,153,,,0,,
336018,,Keskusasema E,61.1953024,28.775561200000002,4,http://153,0,,153,,,0,,
336117,,Ratamokatu 6,61.23132890000001,28.846605600000004,4,http://153,0,,153,,,0,,
336118,,Ratamokatu 9,61.227312600000005,28.840444100000003,4,http://153,0,,153,,,0,,
336119,,Ratamokatu 11,61.22815200000001,28.841751000000002,4,http://153,0,,153,,,0,,
336217,,Honkaharju,61.2212492,28.821995100000002,4,http://153,0,,153,,,0,,
336317,,Kartanonkatu,61.1981443,28.808827800000003,4,http://153,0,,153,,,0,,
337017,,Pakkaskatu,61.199094,28.816724400000002,4,http://153,0,,153,,,0,,
337221,,Ratamokatu,61.231297700000006,28.846770700000004,4,http://153,0,,153,,,0,,
340832,,Puronotko E,61.210144500000006,28.7674045,4,http://153,0,,153,,,0,,
340833,,Korvenkannantie 1 P,61.173164400000005,28.745923800000003,4,http://153,0,,153,,,0,,
341017,,Paperharjuntie 41,61.21489030000001,28.767435900000002,4,http://153,0,,153,,,0,,
341018,,Korvenkannantie 10 E,61.173637400000004,28.745657,4,http://153,0,,153,,,0,,
341126,,Puronotko P,61.2099753,28.7670193,4,http://153,0,,153,,,0,,
343817,,Mansikkalan koulukeskus I,61.184393400000005,28.7765002,4,http://153,0,,153,,,0,,
343818,,Mansikkalan koulukeskus L,61.1845598,28.776044400000004,4,http://153,0,,153,,,0,,
346320,,Saratie keskustaan,61.08320750000001,28.1450895,1,http://405,0,,405,,,0,,
353128,,Kosken koulukeskus P,61.1686410799689,28.784394264221195,4,http://153,0,,153,,,0,,
353171,,Itäsiitola uusi P,61.186612800000006,28.7895162,4,http://153,0,,153,,,0,,
355111,,Tietäjänkatu 3 P,61.18487950000001,28.771327100000004,4,http://153,0,,153,,,0,,
355112,,Tietäjänkatu 3 E,61.184856800000006,28.7710976,4,http://153,0,,153,,,0,,
357619,,Ravonsydän,61.06826313182488,28.43899663751137,2,http://405,0,,405,,,0,,
362517,,Lavolankatu-Puhakankatu keskustasta,61.050673100000004,28.174247100000002,1,http://405,0,,405,,,0,,
366417,,Korkea-ahon koulu,60.973984300000005,28.0863693,2,http://405,0,,405,,,0,,
366548,,Oleksi,61.05900930000001,28.185329100000004,1,http://405,0,,405,,,0,,
366729,,Viipurintie 340 E,61.142221600000006,28.743021400000003,4,http://153,0,,153,,,0,,
366730,,Viipurintie 437 E,61.134474100000006,28.749674900000002,4,http://153,0,,153,,,0,,
366731,,Viipurintie 587 E,61.122952700000006,28.7581896,4,http://153,0,,153,,,0,,
367524,,Hytintie,60.97137900716231,28.16353017376501,2,http://405,0,,405,,,0,,
370395,,Viipurintie 84 E,61.152357,28.755262500000004,4,http://153,0,,153,,,0,,
370396,,Viipurintie 88 E,61.15095660000001,28.753815700000004,4,http://153,0,,153,,,0,,
370397,,Viipurintie 112 E,61.146465000000006,28.7497551,4,http://153,0,,153,,,0,,
370398,,Viipurintie 769 E,61.107390900000006,28.7665484,4,http://153,0,,153,,,0,,
370399,,Räikköläntie 360 P,61.11516030000001,28.802582100000002,4,http://153,0,,153,,,0,,
372711,,Räikköläntie 428,61.118798600000005,28.7945035,4,http://153,0,,153,,,0,,
372729,,Vallikoskentie 390,61.125936800000005,28.789491200000004,4,http://153,0,,153,,,0,,
372730,,Vallinkoskentie 336,61.131142800000006,28.786401800000004,4,http://153,0,,153,,,0,,
372731,,Vallinkoskentie 291,61.134818700000004,28.786222900000002,4,http://153,0,,153,,,0,,
372732,,Vallinkoskentie 171,61.1446431,28.777680500000002,4,http://153,0,,153,,,0,,
373736,,Veteraanipuisto P,61.181868900000005,28.7921511,4,http://153,0,,153,,,0,,
373737,,Pellonreuna P,61.18534830000001,28.7896639,4,http://153,0,,153,,,0,,
373738,,Itä-Siitola,61.188378900000004,28.788974600000003,4,http://153,0,,153,,,0,,
373739,,Itä-Siitola 2,61.19161280000001,28.787575500000003,4,http://153,0,,153,,,0,,
373740,,Vuoksenniskantie 1 P,61.1979673,28.783534200000002,4,http://153,0,,153,,,0,,
373741,,Sienimäenranta P,61.20226160000001,28.786957800000003,4,http://153,0,,153,,,0,,
393019,,Salpausselänkatu L,61.032686700000006,28.077930400000003,1,http://405,0,,404,,,0,,
393218,,Salpausselänkatu I,61.03253900000001,28.077856900000004,1,http://405,0,,405,,,0,,
406117,,Sienimäenranta E,61.20158440000001,28.785404200000002,4,http://153,0,,153,,,0,,
406127,,Itäsiitola 2 E,61.192027200000005,28.786932200000003,4,http://153,0,,153,,,0,,
406128,,Itäsiitola E,61.188807100000005,28.788467500000003,4,http://153,0,,153,,,0,,
406129,,Pellonreuna E,61.186153700000006,28.789300400000002,4,http://153,0,,153,,,0,,
406130,,Veteraanipuisto E,61.1814249,28.7917601,4,http://153,0,,153,,,0,,
406132,,Koskenkoulu E,61.16853,28.783777,4,http://153,0,,153,,,0,,
406151,,Räikköläntie 252P,61.108112,28.80886,4,http://153,0,,153,,,0,,
406154,,Vallinkoskentie 29P,61.150427900000004,28.7668424,4,http://153,0,,153,,,0,,
406155,,Meltolan koulu P,61.1532368,28.763345400000002,4,http://153,0,,153,,,0,,
408718,,Nuijamaa,60.96000480000001,28.538771300000004,2,http://405,0,,405,,,0,,
430318,,Lappeen koulu,61.05067450000001,28.064287000000004,1,http://405,0,,405,,,0,,
441218,,Linjatie P,61.12551896494466,28.455204554911095,2,http://405,0,,405,,,0,,
441219,,Linjatie E,61.12488371258473,28.452544487234004,2,http://405,0,,405,,,0,,
441718,,Niittyvillantie L,61.08097250000001,28.147943,1,http://405,0,,405,,,0,,
449819,,Rauhantie P,61.172420200000005,28.685891200000004,2,http://405,0,,405,,,0,,
449918,,Jänhiäläntie I,61.1642633,28.6643505,2,http://405,0,,405,,,0,,
450018,,Jänhiäläntie L,61.16432770000001,28.663773300000003,2,http://405,0,,405,,,0,,
450118,,Rauhantie E,61.1714357,28.684486600000003,2,http://405,0,,405,,,0,,
471618,,Joutsenon koulu,61.115093900000005,28.513617000000004,2,http://405,0,,405,,,0,,
483820,,Vainikkala Ojala,60.878858198332296,28.275186594282,2,http://405,0,,405,,,0,,
